$GPGGA,000000.00,3559.36882306,N,05159.47933922,E,1,05,2.87,100.0000,M,00.000,M,,*66
$GPGGA,000000.10,3559.36882306,N,05159.47933922,E,1,05,2.87,100.0000,M,00.000,M,,*67
$GPGGA,000000.20,3559.36882306,N,05159.47933922,E,1,05,2.87,100.0000,M,00.000,M,,*64
$GPGGA,000000.30,3559.36882306,N,05159.47933922,E,1,05,2.87,100.0000,M,00.000,M,,*65
$GPGGA,000000.40,3559.36882306,N,05159.47933922,E,1,05,2.87,100.0000,M,00.000,M,,*62
$GPGGA,000000.50,3559.36882306,N,05159.47933922,E,1,05,2.87,100.0000,M,00.000,M,,*63
$GPGGA,000000.60,3559.36882306,N,05159.47933922,E,1,05,2.87,100.0000,M,00.000,M,,*60
$GPGGA,000000.70,3559.36882306,N,05159.47933922,E,1,05,2.87,100.0000,M,00.000,M,,*61
$GPGGA,000000.80,3559.36882306,N,05159.47933922,E,1,05,2.87,100.0000,M,00.000,M,,*6E
$GPGGA,000000.90,3559.36882306,N,05159.47933922,E,1,05,2.87,100.0000,M,00.000,M,,*6F
$GPGGA,000001.00,3559.36882306,N,05159.47933922,E,1,05,2.87,100.0000,M,00.000,M,,*67
$GPGGA,000001.10,3559.36882306,N,05159.47933922,E,1,05,2.87,100.0000,M,00.000,M,,*66
$GPGGA,000001.20,3559.36882306,N,05159.47933922,E,1,05,2.87,100.0000,M,00.000,M,,*65
$GPGGA,000001.30,3559.36882306,N,05159.47933922,E,1,05,2.87,100.0000,M,00.000,M,,*64
$GPGGA,000001.40,3559.36882306,N,05159.47933922,E,1,05,2.87,100.0000,M,00.000,M,,*63
$GPGGA,000001.50,3559.36882306,N,05159.47933922,E,1,05,2.87,100.0000,M,00.000,M,,*62
$GPGGA,000001.60,3559.36882306,N,05159.47933922,E,1,05,2.87,100.0000,M,00.000,M,,*61
$GPGGA,000001.70,3559.36882306,N,05159.47933922,E,1,05,2.87,100.0000,M,00.000,M,,*60
$GPGGA,000001.80,3559.36882306,N,05159.47933922,E,1,05,2.87,100.0000,M,00.000,M,,*6F
$GPGGA,000001.90,3559.36882306,N,05159.47933922,E,1,05,2.87,100.0000,M,00.000,M,,*6E
$GPGGA,000002.00,3559.36882306,N,05159.47933922,E,1,05,2.87,100.0000,M,00.000,M,,*64
$GPGGA,000002.10,3559.36882306,N,05159.47933922,E,1,05,2.87,100.0000,M,00.000,M,,*65
$GPGGA,000002.20,3559.36882306,N,05159.47933922,E,1,05,2.87,100.0000,M,00.000,M,,*66
$GPGGA,000002.30,3559.36882306,N,05159.47933922,E,1,05,2.87,100.0000,M,00.000,M,,*67
$GPGGA,000002.40,3559.36882306,N,05159.47933922,E,1,05,2.87,100.0000,M,00.000,M,,*60
$GPGGA,000002.50,3559.36882306,N,05159.47933922,E,1,05,2.87,100.0000,M,00.000,M,,*61
$GPGGA,000002.60,3559.36882306,N,05159.47933922,E,1,05,2.87,100.0000,M,00.000,M,,*62
$GPGGA,000002.70,3559.36882306,N,05159.47933922,E,1,05,2.87,100.0000,M,00.000,M,,*63
$GPGGA,000002.80,3559.36882306,N,05159.47933922,E,1,05,2.87,100.0000,M,00.000,M,,*6C
$GPGGA,000002.90,3559.36882306,N,05159.47933922,E,1,05,2.87,100.0000,M,00.000,M,,*6D
$GPGGA,000003.00,3559.36882306,N,05159.47933922,E,1,05,2.87,100.0000,M,00.000,M,,*65
$GPGGA,000003.10,3559.36882306,N,05159.47933922,E,1,05,2.87,100.0000,M,00.000,M,,*64
$GPGGA,000003.20,3559.36882306,N,05159.47933922,E,1,05,2.87,100.0000,M,00.000,M,,*67
$GPGGA,000003.30,3559.36882306,N,05159.47933922,E,1,05,2.87,100.0000,M,00.000,M,,*66
$GPGGA,000003.40,3559.36882306,N,05159.47933922,E,1,05,2.87,100.0000,M,00.000,M,,*61
$GPGGA,000003.50,3559.36882306,N,05159.47933922,E,1,05,2.87,100.0000,M,00.000,M,,*60
$GPGGA,000003.60,3559.36882306,N,05159.47933922,E,1,05,2.87,100.0000,M,00.000,M,,*63
$GPGGA,000003.70,3559.36882306,N,05159.47933922,E,1,05,2.87,100.0000,M,00.000,M,,*62
$GPGGA,000003.80,3559.36882306,N,05159.47933922,E,1,05,2.87,100.0000,M,00.000,M,,*6D
$GPGGA,000003.90,3559.36882306,N,05159.47933922,E,1,05,2.87,100.0000,M,00.000,M,,*6C
$GPGGA,000004.00,3559.36882306,N,05159.47933922,E,1,05,2.87,100.0000,M,00.000,M,,*62
$GPGGA,000004.10,3559.36882306,N,05159.47933922,E,1,05,2.87,100.0000,M,00.000,M,,*63
$GPGGA,000004.20,3559.36882306,N,05159.47933922,E,1,05,2.87,100.0000,M,00.000,M,,*60
$GPGGA,000004.30,3559.36882306,N,05159.47933922,E,1,05,2.87,100.0000,M,00.000,M,,*61
$GPGGA,000004.40,3559.36882306,N,05159.47933922,E,1,05,2.87,100.0000,M,00.000,M,,*66
$GPGGA,000004.50,3559.36882306,N,05159.47933922,E,1,05,2.87,100.0000,M,00.000,M,,*67
$GPGGA,000004.60,3559.36882306,N,05159.47933922,E,1,05,2.87,100.0000,M,00.000,M,,*64
$GPGGA,000004.70,3559.36882306,N,05159.47933922,E,1,05,2.87,100.0000,M,00.000,M,,*65
$GPGGA,000004.80,3559.36882306,N,05159.47933922,E,1,05,2.87,100.0000,M,00.000,M,,*6A
$GPGGA,000004.90,3559.36882306,N,05159.47933922,E,1,05,2.87,100.0000,M,00.000,M,,*6B
$GPGGA,000005.00,3559.36882306,N,05159.47933922,E,1,05,2.87,100.0000,M,00.000,M,,*63
$GPGGA,000005.10,3559.36882306,N,05159.47933922,E,1,05,2.87,100.0000,M,00.000,M,,*62
$GPGGA,000005.20,3559.36882306,N,05159.47933922,E,1,05,2.87,100.0000,M,00.000,M,,*61
$GPGGA,000005.30,3559.36882306,N,05159.47933922,E,1,05,2.87,100.0000,M,00.000,M,,*60
$GPGGA,000005.40,3559.36882306,N,05159.47933922,E,1,05,2.87,100.0000,M,00.000,M,,*67
$GPGGA,000005.50,3559.36882306,N,05159.47933922,E,1,05,2.87,100.0000,M,00.000,M,,*66
$GPGGA,000005.60,3559.36882306,N,05159.47933922,E,1,05,2.87,100.0000,M,00.000,M,,*65
$GPGGA,000005.70,3559.36882306,N,05159.47933922,E,1,05,2.87,100.0000,M,00.000,M,,*64
$GPGGA,000005.80,3559.36882306,N,05159.47933922,E,1,05,2.87,100.0000,M,00.000,M,,*6B
$GPGGA,000005.90,3559.36882306,N,05159.47933922,E,1,05,2.87,100.0000,M,00.000,M,,*6A
$GPGGA,000006.00,3559.36882306,N,05159.47933922,E,1,05,2.87,100.0000,M,00.000,M,,*60
$GPGGA,000006.10,3559.36882306,N,05159.47933922,E,1,05,2.87,100.0000,M,00.000,M,,*61
$GPGGA,000006.20,3559.36882306,N,05159.47933922,E,1,05,2.87,100.0000,M,00.000,M,,*62
$GPGGA,000006.30,3559.36882306,N,05159.47933922,E,1,05,2.87,100.0000,M,00.000,M,,*63
$GPGGA,000006.40,3559.36882306,N,05159.47933922,E,1,05,2.87,100.0000,M,00.000,M,,*64
$GPGGA,000006.50,3559.36882306,N,05159.47933922,E,1,05,2.87,100.0000,M,00.000,M,,*65
$GPGGA,000006.60,3559.36882306,N,05159.47933922,E,1,05,2.87,100.0000,M,00.000,M,,*66
$GPGGA,000006.70,3559.36882306,N,05159.47933922,E,1,05,2.87,100.0000,M,00.000,M,,*67
$GPGGA,000006.80,3559.36882306,N,05159.47933922,E,1,05,2.87,100.0000,M,00.000,M,,*68
$GPGGA,000006.90,3559.36882306,N,05159.47933922,E,1,05,2.87,100.0000,M,00.000,M,,*69
$GPGGA,000007.00,3559.36882306,N,05159.47933922,E,1,05,2.87,100.0000,M,00.000,M,,*61
$GPGGA,000007.10,3559.36882306,N,05159.47933922,E,1,05,2.87,100.0000,M,00.000,M,,*60
$GPGGA,000007.20,3559.36882306,N,05159.47933922,E,1,05,2.87,100.0000,M,00.000,M,,*63
$GPGGA,000007.30,3559.36882306,N,05159.47933922,E,1,05,2.87,100.0000,M,00.000,M,,*62
$GPGGA,000007.40,3559.36882306,N,05159.47933922,E,1,05,2.87,100.0000,M,00.000,M,,*65
$GPGGA,000007.50,3559.36882306,N,05159.47933922,E,1,05,2.87,100.0000,M,00.000,M,,*64
$GPGGA,000007.60,3559.36882306,N,05159.47933922,E,1,05,2.87,100.0000,M,00.000,M,,*67
$GPGGA,000007.70,3559.36882306,N,05159.47933922,E,1,05,2.87,100.0000,M,00.000,M,,*66
$GPGGA,000007.80,3559.36882306,N,05159.47933922,E,1,05,2.87,100.0000,M,00.000,M,,*69
$GPGGA,000007.90,3559.36882306,N,05159.47933922,E,1,05,2.87,100.0000,M,00.000,M,,*68
$GPGGA,000008.00,3559.36882306,N,05159.47933922,E,1,05,2.87,100.0000,M,00.000,M,,*6E
$GPGGA,000008.10,3559.36882306,N,05159.47933922,E,1,05,2.87,100.0000,M,00.000,M,,*6F
$GPGGA,000008.20,3559.36882306,N,05159.47933922,E,1,05,2.87,100.0000,M,00.000,M,,*6C
$GPGGA,000008.30,3559.36882306,N,05159.47933922,E,1,05,2.87,100.0000,M,00.000,M,,*6D
$GPGGA,000008.40,3559.36882306,N,05159.47933922,E,1,05,2.87,100.0000,M,00.000,M,,*6A
$GPGGA,000008.50,3559.36882306,N,05159.47933922,E,1,05,2.87,100.0000,M,00.000,M,,*6B
$GPGGA,000008.60,3559.36882306,N,05159.47933922,E,1,05,2.87,100.0000,M,00.000,M,,*68
$GPGGA,000008.70,3559.36882306,N,05159.47933922,E,1,05,2.87,100.0000,M,00.000,M,,*69
$GPGGA,000008.80,3559.36882306,N,05159.47933922,E,1,05,2.87,100.0000,M,00.000,M,,*66
$GPGGA,000008.90,3559.36882306,N,05159.47933922,E,1,05,2.87,100.0000,M,00.000,M,,*67
$GPGGA,000009.00,3559.36882306,N,05159.47933922,E,1,05,2.87,100.0000,M,00.000,M,,*6F
$GPGGA,000009.10,3559.36882306,N,05159.47933922,E,1,05,2.87,100.0000,M,00.000,M,,*6E
$GPGGA,000009.20,3559.36882306,N,05159.47933922,E,1,05,2.87,100.0000,M,00.000,M,,*6D
$GPGGA,000009.30,3559.36882306,N,05159.47933922,E,1,05,2.87,100.0000,M,00.000,M,,*6C
$GPGGA,000009.40,3559.36882306,N,05159.47933922,E,1,05,2.87,100.0000,M,00.000,M,,*6B
$GPGGA,000009.50,3559.36882306,N,05159.47933922,E,1,05,2.87,100.0000,M,00.000,M,,*6A
$GPGGA,000009.60,3559.36882306,N,05159.47933922,E,1,05,2.87,100.0000,M,00.000,M,,*69
$GPGGA,000009.70,3559.36882306,N,05159.47933922,E,1,05,2.87,100.0000,M,00.000,M,,*68
$GPGGA,000009.80,3559.36882306,N,05159.47933922,E,1,05,2.87,100.0000,M,00.000,M,,*67
$GPGGA,000009.90,3559.36882306,N,05159.47933922,E,1,05,2.87,100.0000,M,00.000,M,,*66
$GPGGA,000010.00,3559.36882306,N,05159.47933922,E,1,05,2.87,100.0000,M,00.000,M,,*67
$GPGGA,000010.10,3559.36882306,N,05159.47933922,E,1,05,2.87,100.0000,M,00.000,M,,*66
$GPGGA,000010.20,3559.36882306,N,05159.47933922,E,1,05,2.87,100.0000,M,00.000,M,,*65
$GPGGA,000010.30,3559.36882306,N,05159.47933922,E,1,05,2.87,100.0000,M,00.000,M,,*64
$GPGGA,000010.40,3559.36882306,N,05159.47933922,E,1,05,2.87,100.0000,M,00.000,M,,*63
$GPGGA,000010.50,3559.36882306,N,05159.47933922,E,1,05,2.87,100.0000,M,00.000,M,,*62
$GPGGA,000010.60,3559.36882306,N,05159.47933922,E,1,05,2.87,100.0000,M,00.000,M,,*61
$GPGGA,000010.70,3559.36882306,N,05159.47933922,E,1,05,2.87,100.0000,M,00.000,M,,*60
$GPGGA,000010.80,3559.36882306,N,05159.47933922,E,1,05,2.87,100.0000,M,00.000,M,,*6F
$GPGGA,000010.90,3559.36882306,N,05159.47933922,E,1,05,2.87,100.0000,M,00.000,M,,*6E
$GPGGA,000011.00,3559.36882306,N,05159.47933922,E,1,05,2.87,100.0000,M,00.000,M,,*66
$GPGGA,000011.10,3559.36882306,N,05159.47933922,E,1,05,2.87,100.0000,M,00.000,M,,*67
$GPGGA,000011.20,3559.36882306,N,05159.47933922,E,1,05,2.87,100.0000,M,00.000,M,,*64
$GPGGA,000011.30,3559.36882306,N,05159.47933922,E,1,05,2.87,100.0000,M,00.000,M,,*65
$GPGGA,000011.40,3559.36882306,N,05159.47933922,E,1,05,2.87,100.0000,M,00.000,M,,*62
$GPGGA,000011.50,3559.36882306,N,05159.47933922,E,1,05,2.87,100.0000,M,00.000,M,,*63
$GPGGA,000011.60,3559.36882306,N,05159.47933922,E,1,05,2.87,100.0000,M,00.000,M,,*60
$GPGGA,000011.70,3559.36882306,N,05159.47933922,E,1,05,2.87,100.0000,M,00.000,M,,*61
$GPGGA,000011.80,3559.36882306,N,05159.47933922,E,1,05,2.87,100.0000,M,00.000,M,,*6E
$GPGGA,000011.90,3559.36882306,N,05159.47933922,E,1,05,2.87,100.0000,M,00.000,M,,*6F
$GPGGA,000012.00,3559.36882306,N,05159.47933922,E,1,05,2.87,100.0000,M,00.000,M,,*65
$GPGGA,000012.10,3559.36882306,N,05159.47933922,E,1,05,2.87,100.0000,M,00.000,M,,*64
$GPGGA,000012.20,3559.36882306,N,05159.47933922,E,1,05,2.87,100.0000,M,00.000,M,,*67
$GPGGA,000012.30,3559.36882306,N,05159.47933922,E,1,05,2.87,100.0000,M,00.000,M,,*66
$GPGGA,000012.40,3559.36882306,N,05159.47933922,E,1,05,2.87,100.0000,M,00.000,M,,*61
$GPGGA,000012.50,3559.36882306,N,05159.47933922,E,1,05,2.87,100.0000,M,00.000,M,,*60
$GPGGA,000012.60,3559.36882306,N,05159.47933922,E,1,05,2.87,100.0000,M,00.000,M,,*63
$GPGGA,000012.70,3559.36882306,N,05159.47933922,E,1,05,2.87,100.0000,M,00.000,M,,*62
$GPGGA,000012.80,3559.36882306,N,05159.47933922,E,1,05,2.87,100.0000,M,00.000,M,,*6D
$GPGGA,000012.90,3559.36882306,N,05159.47933922,E,1,05,2.87,100.0000,M,00.000,M,,*6C
$GPGGA,000013.00,3559.36882306,N,05159.47933922,E,1,05,2.87,100.0000,M,00.000,M,,*64
$GPGGA,000013.10,3559.36882306,N,05159.47933922,E,1,05,2.87,100.0000,M,00.000,M,,*65
$GPGGA,000013.20,3559.36882306,N,05159.47933922,E,1,05,2.87,100.0000,M,00.000,M,,*66
$GPGGA,000013.30,3559.36882306,N,05159.47933922,E,1,05,2.87,100.0000,M,00.000,M,,*67
$GPGGA,000013.40,3559.36882306,N,05159.47933922,E,1,05,2.87,100.0000,M,00.000,M,,*60
$GPGGA,000013.50,3559.36882306,N,05159.47933922,E,1,05,2.87,100.0000,M,00.000,M,,*61
$GPGGA,000013.60,3559.36882306,N,05159.47933922,E,1,05,2.87,100.0000,M,00.000,M,,*62
$GPGGA,000013.70,3559.36882306,N,05159.47933922,E,1,05,2.87,100.0000,M,00.000,M,,*63
$GPGGA,000013.80,3559.36882306,N,05159.47933922,E,1,05,2.87,100.0000,M,00.000,M,,*6C
$GPGGA,000013.90,3559.36882306,N,05159.47933922,E,1,05,2.87,100.0000,M,00.000,M,,*6D
$GPGGA,000014.00,3559.36882306,N,05159.47933922,E,1,05,2.87,100.0000,M,00.000,M,,*63
$GPGGA,000014.10,3559.36882306,N,05159.47933922,E,1,05,2.87,100.0000,M,00.000,M,,*62
$GPGGA,000014.20,3559.36882306,N,05159.47933922,E,1,05,2.87,100.0000,M,00.000,M,,*61
$GPGGA,000014.30,3559.36882306,N,05159.47933922,E,1,05,2.87,100.0000,M,00.000,M,,*60
$GPGGA,000014.40,3559.36882306,N,05159.47933922,E,1,05,2.87,100.0000,M,00.000,M,,*67
$GPGGA,000014.50,3559.36882306,N,05159.47933922,E,1,05,2.87,100.0000,M,00.000,M,,*66
$GPGGA,000014.60,3559.36882306,N,05159.47933922,E,1,05,2.87,100.0000,M,00.000,M,,*65
$GPGGA,000014.70,3559.36882306,N,05159.47933922,E,1,05,2.87,100.0000,M,00.000,M,,*64
$GPGGA,000014.80,3559.36882306,N,05159.47933922,E,1,05,2.87,100.0000,M,00.000,M,,*6B
$GPGGA,000014.90,3559.36882306,N,05159.47933922,E,1,05,2.87,100.0000,M,00.000,M,,*6A
$GPGGA,000015.00,3559.36882306,N,05159.47933922,E,1,05,2.87,100.0000,M,00.000,M,,*62
$GPGGA,000015.10,3559.36882306,N,05159.47933922,E,1,05,2.87,100.0000,M,00.000,M,,*63
$GPGGA,000015.20,3559.36882306,N,05159.47933922,E,1,05,2.87,100.0000,M,00.000,M,,*60
$GPGGA,000015.30,3559.36882306,N,05159.47933922,E,1,05,2.87,100.0000,M,00.000,M,,*61
$GPGGA,000015.40,3559.36882306,N,05159.47933922,E,1,05,2.87,100.0000,M,00.000,M,,*66
$GPGGA,000015.50,3559.36882306,N,05159.47933922,E,1,05,2.87,100.0000,M,00.000,M,,*67
$GPGGA,000015.60,3559.36882306,N,05159.47933922,E,1,05,2.87,100.0000,M,00.000,M,,*64
$GPGGA,000015.70,3559.36882306,N,05159.47933922,E,1,05,2.87,100.0000,M,00.000,M,,*65
$GPGGA,000015.80,3559.36882306,N,05159.47933922,E,1,05,2.87,100.0000,M,00.000,M,,*6A
$GPGGA,000015.90,3559.36882306,N,05159.47933922,E,1,05,2.87,100.0000,M,00.000,M,,*6B
$GPGGA,000016.00,3559.36882306,N,05159.47933922,E,1,05,2.87,100.0000,M,00.000,M,,*61
$GPGGA,000016.10,3559.36882306,N,05159.47933922,E,1,05,2.87,100.0000,M,00.000,M,,*60
$GPGGA,000016.20,3559.36882306,N,05159.47933922,E,1,05,2.87,100.0000,M,00.000,M,,*63
$GPGGA,000016.30,3559.36882306,N,05159.47933922,E,1,05,2.87,100.0000,M,00.000,M,,*62
$GPGGA,000016.40,3559.36882306,N,05159.47933922,E,1,05,2.87,100.0000,M,00.000,M,,*65
$GPGGA,000016.50,3559.36882306,N,05159.47933922,E,1,05,2.87,100.0000,M,00.000,M,,*64
$GPGGA,000016.60,3559.36882306,N,05159.47933922,E,1,05,2.87,100.0000,M,00.000,M,,*67
$GPGGA,000016.70,3559.36882306,N,05159.47933922,E,1,05,2.87,100.0000,M,00.000,M,,*66
$GPGGA,000016.80,3559.36882306,N,05159.47933922,E,1,05,2.87,100.0000,M,00.000,M,,*69
$GPGGA,000016.90,3559.36882306,N,05159.47933922,E,1,05,2.87,100.0000,M,00.000,M,,*68
$GPGGA,000017.00,3559.36882306,N,05159.47933922,E,1,05,2.87,100.0000,M,00.000,M,,*60
$GPGGA,000017.10,3559.36882306,N,05159.47933922,E,1,05,2.87,100.0000,M,00.000,M,,*61
$GPGGA,000017.20,3559.36882306,N,05159.47933922,E,1,05,2.87,100.0000,M,00.000,M,,*62
$GPGGA,000017.30,3559.36882306,N,05159.47933922,E,1,05,2.87,100.0000,M,00.000,M,,*63
$GPGGA,000017.40,3559.36882306,N,05159.47933922,E,1,05,2.87,100.0000,M,00.000,M,,*64
$GPGGA,000017.50,3559.36882306,N,05159.47933922,E,1,05,2.87,100.0000,M,00.000,M,,*65
$GPGGA,000017.60,3559.36882306,N,05159.47933922,E,1,05,2.87,100.0000,M,00.000,M,,*66
$GPGGA,000017.70,3559.36882306,N,05159.47933922,E,1,05,2.87,100.0000,M,00.000,M,,*67
$GPGGA,000017.80,3559.36882306,N,05159.47933922,E,1,05,2.87,100.0000,M,00.000,M,,*68
$GPGGA,000017.90,3559.36882306,N,05159.47933922,E,1,05,2.87,100.0000,M,00.000,M,,*69
$GPGGA,000018.00,3559.36882306,N,05159.47933922,E,1,05,2.87,100.0000,M,00.000,M,,*6F
$GPGGA,000018.10,3559.36882306,N,05159.47933922,E,1,05,2.87,100.0000,M,00.000,M,,*6E
$GPGGA,000018.20,3559.36882306,N,05159.47933922,E,1,05,2.87,100.0000,M,00.000,M,,*6D
$GPGGA,000018.30,3559.36882306,N,05159.47933922,E,1,05,2.87,100.0000,M,00.000,M,,*6C
$GPGGA,000018.40,3559.36882306,N,05159.47933922,E,1,05,2.87,100.0000,M,00.000,M,,*6B
$GPGGA,000018.50,3559.36882306,N,05159.47933922,E,1,05,2.87,100.0000,M,00.000,M,,*6A
$GPGGA,000018.60,3559.36882306,N,05159.47933922,E,1,05,2.87,100.0000,M,00.000,M,,*69
$GPGGA,000018.70,3559.36882306,N,05159.47933922,E,1,05,2.87,100.0000,M,00.000,M,,*68
$GPGGA,000018.80,3559.36882306,N,05159.47933922,E,1,05,2.87,100.0000,M,00.000,M,,*67
$GPGGA,000018.90,3559.36882306,N,05159.47933922,E,1,05,2.87,100.0000,M,00.000,M,,*66
$GPGGA,000019.00,3559.36882306,N,05159.47933922,E,1,05,2.87,100.0000,M,00.000,M,,*6E
$GPGGA,000019.10,3559.36882306,N,05159.47933922,E,1,05,2.87,100.0000,M,00.000,M,,*6F
$GPGGA,000019.20,3559.36882306,N,05159.47933922,E,1,05,2.87,100.0000,M,00.000,M,,*6C
$GPGGA,000019.30,3559.36882306,N,05159.47933922,E,1,05,2.87,100.0000,M,00.000,M,,*6D
$GPGGA,000019.40,3559.36882306,N,05159.47933922,E,1,05,2.87,100.0000,M,00.000,M,,*6A
$GPGGA,000019.50,3559.36882306,N,05159.47933922,E,1,05,2.87,100.0000,M,00.000,M,,*6B
$GPGGA,000019.60,3559.36882306,N,05159.47933922,E,1,05,2.87,100.0000,M,00.000,M,,*68
$GPGGA,000019.70,3559.36882306,N,05159.47933922,E,1,05,2.87,100.0000,M,00.000,M,,*69
$GPGGA,000019.80,3559.36882306,N,05159.47933922,E,1,05,2.87,100.0000,M,00.000,M,,*66
$GPGGA,000019.90,3559.36882306,N,05159.47933922,E,1,05,2.87,100.0000,M,00.000,M,,*67
$GPGGA,000020.00,3559.36882306,N,05159.47933922,E,1,05,2.87,100.0000,M,00.000,M,,*64
$GPGGA,000020.10,3559.36882306,N,05159.47933922,E,1,05,2.87,100.0000,M,00.000,M,,*65
$GPGGA,000020.20,3559.36882306,N,05159.47933922,E,1,05,2.87,100.0000,M,00.000,M,,*66
$GPGGA,000020.30,3559.36882306,N,05159.47933922,E,1,05,2.87,100.0000,M,00.000,M,,*67
$GPGGA,000020.40,3559.36882306,N,05159.47933922,E,1,05,2.87,100.0000,M,00.000,M,,*60
$GPGGA,000020.50,3559.36882306,N,05159.47933922,E,1,05,2.87,100.0000,M,00.000,M,,*61
$GPGGA,000020.60,3559.36882306,N,05159.47933922,E,1,05,2.87,100.0000,M,00.000,M,,*62
$GPGGA,000020.70,3559.36882306,N,05159.47933922,E,1,05,2.87,100.0000,M,00.000,M,,*63
$GPGGA,000020.80,3559.36882306,N,05159.47933922,E,1,05,2.87,100.0000,M,00.000,M,,*6C
$GPGGA,000020.90,3559.36882306,N,05159.47933922,E,1,05,2.87,100.0000,M,00.000,M,,*6D
$GPGGA,000021.00,3559.36882306,N,05159.47933922,E,1,05,2.87,100.0000,M,00.000,M,,*65
$GPGGA,000021.10,3559.36882306,N,05159.47933922,E,1,05,2.87,100.0000,M,00.000,M,,*64
$GPGGA,000021.20,3559.36882306,N,05159.47933922,E,1,05,2.87,100.0000,M,00.000,M,,*67
$GPGGA,000021.30,3559.36882306,N,05159.47933922,E,1,05,2.87,100.0000,M,00.000,M,,*66
$GPGGA,000021.40,3559.36882306,N,05159.47933922,E,1,05,2.87,100.0000,M,00.000,M,,*61
$GPGGA,000021.50,3559.36882306,N,05159.47933922,E,1,05,2.87,100.0000,M,00.000,M,,*60
$GPGGA,000021.60,3559.36882306,N,05159.47933922,E,1,05,2.87,100.0000,M,00.000,M,,*63
$GPGGA,000021.70,3559.36882306,N,05159.47933922,E,1,05,2.87,100.0000,M,00.000,M,,*62
$GPGGA,000021.80,3559.36882306,N,05159.47933922,E,1,05,2.87,100.0000,M,00.000,M,,*6D
$GPGGA,000021.90,3559.36882306,N,05159.47933922,E,1,05,2.87,100.0000,M,00.000,M,,*6C
$GPGGA,000022.00,3559.36882306,N,05159.47933922,E,1,05,2.87,100.0000,M,00.000,M,,*66
$GPGGA,000022.10,3559.36882306,N,05159.47933922,E,1,05,2.87,100.0000,M,00.000,M,,*67
$GPGGA,000022.20,3559.36882306,N,05159.47933922,E,1,05,2.87,100.0000,M,00.000,M,,*64
$GPGGA,000022.30,3559.36882306,N,05159.47933922,E,1,05,2.87,100.0000,M,00.000,M,,*65
$GPGGA,000022.40,3559.36882306,N,05159.47933922,E,1,05,2.87,100.0000,M,00.000,M,,*62
$GPGGA,000022.50,3559.36882306,N,05159.47933922,E,1,05,2.87,100.0000,M,00.000,M,,*63
$GPGGA,000022.60,3559.36882306,N,05159.47933922,E,1,05,2.87,100.0000,M,00.000,M,,*60
$GPGGA,000022.70,3559.36882306,N,05159.47933922,E,1,05,2.87,100.0000,M,00.000,M,,*61
$GPGGA,000022.80,3559.36882306,N,05159.47933922,E,1,05,2.87,100.0000,M,00.000,M,,*6E
$GPGGA,000022.90,3559.36882306,N,05159.47933922,E,1,05,2.87,100.0000,M,00.000,M,,*6F
$GPGGA,000023.00,3559.36882306,N,05159.47933922,E,1,05,2.87,100.0000,M,00.000,M,,*67
$GPGGA,000023.10,3559.36882306,N,05159.47933922,E,1,05,2.87,100.0000,M,00.000,M,,*66
$GPGGA,000023.20,3559.36882306,N,05159.47933922,E,1,05,2.87,100.0000,M,00.000,M,,*65
$GPGGA,000023.30,3559.36882306,N,05159.47933922,E,1,05,2.87,100.0000,M,00.000,M,,*64
$GPGGA,000023.40,3559.36882306,N,05159.47933922,E,1,05,2.87,100.0000,M,00.000,M,,*63
$GPGGA,000023.50,3559.36882306,N,05159.47933922,E,1,05,2.87,100.0000,M,00.000,M,,*62
$GPGGA,000023.60,3559.36882306,N,05159.47933922,E,1,05,2.87,100.0000,M,00.000,M,,*61
$GPGGA,000023.70,3559.36882306,N,05159.47933922,E,1,05,2.87,100.0000,M,00.000,M,,*60
$GPGGA,000023.80,3559.36882306,N,05159.47933922,E,1,05,2.87,100.0000,M,00.000,M,,*6F
$GPGGA,000023.90,3559.36882306,N,05159.47933922,E,1,05,2.87,100.0000,M,00.000,M,,*6E
$GPGGA,000024.00,3559.36882306,N,05159.47933922,E,1,05,2.87,100.0000,M,00.000,M,,*60
$GPGGA,000024.10,3559.36882306,N,05159.47933922,E,1,05,2.87,100.0000,M,00.000,M,,*61
$GPGGA,000024.20,3559.36882306,N,05159.47933922,E,1,05,2.87,100.0000,M,00.000,M,,*62
$GPGGA,000024.30,3559.36882306,N,05159.47933922,E,1,05,2.87,100.0000,M,00.000,M,,*63
$GPGGA,000024.40,3559.36882306,N,05159.47933922,E,1,05,2.87,100.0000,M,00.000,M,,*64
$GPGGA,000024.50,3559.36882306,N,05159.47933922,E,1,05,2.87,100.0000,M,00.000,M,,*65
$GPGGA,000024.60,3559.36882306,N,05159.47933922,E,1,05,2.87,100.0000,M,00.000,M,,*66
$GPGGA,000024.70,3559.36882306,N,05159.47933922,E,1,05,2.87,100.0000,M,00.000,M,,*67
$GPGGA,000024.80,3559.36882306,N,05159.47933922,E,1,05,2.87,100.0000,M,00.000,M,,*68
$GPGGA,000024.90,3559.36882306,N,05159.47933922,E,1,05,2.87,100.0000,M,00.000,M,,*69
$GPGGA,000025.00,3559.36882306,N,05159.47933922,E,1,05,2.87,100.0000,M,00.000,M,,*61
$GPGGA,000025.10,3559.36882306,N,05159.47933922,E,1,05,2.87,100.0000,M,00.000,M,,*60
$GPGGA,000025.20,3559.36882306,N,05159.47933922,E,1,05,2.87,100.0000,M,00.000,M,,*63
$GPGGA,000025.30,3559.36882306,N,05159.47933922,E,1,05,2.87,100.0000,M,00.000,M,,*62
$GPGGA,000025.40,3559.36882306,N,05159.47933922,E,1,05,2.87,100.0000,M,00.000,M,,*65
$GPGGA,000025.50,3559.36882306,N,05159.47933922,E,1,05,2.87,100.0000,M,00.000,M,,*64
$GPGGA,000025.60,3559.36882306,N,05159.47933922,E,1,05,2.87,100.0000,M,00.000,M,,*67
$GPGGA,000025.70,3559.36882306,N,05159.47933922,E,1,05,2.87,100.0000,M,00.000,M,,*66
$GPGGA,000025.80,3559.36882306,N,05159.47933922,E,1,05,2.87,100.0000,M,00.000,M,,*69
$GPGGA,000025.90,3559.36882306,N,05159.47933922,E,1,05,2.87,100.0000,M,00.000,M,,*68
$GPGGA,000026.00,3559.36882306,N,05159.47933922,E,1,05,2.87,100.0000,M,00.000,M,,*62
$GPGGA,000026.10,3559.36882306,N,05159.47933922,E,1,05,2.87,100.0000,M,00.000,M,,*63
$GPGGA,000026.20,3559.36882306,N,05159.47933922,E,1,05,2.87,100.0000,M,00.000,M,,*60
$GPGGA,000026.30,3559.36882306,N,05159.47933922,E,1,05,2.87,100.0000,M,00.000,M,,*61
$GPGGA,000026.40,3559.36882306,N,05159.47933922,E,1,05,2.87,100.0000,M,00.000,M,,*66
$GPGGA,000026.50,3559.36882306,N,05159.47933922,E,1,05,2.87,100.0000,M,00.000,M,,*67
$GPGGA,000026.60,3559.36882306,N,05159.47933922,E,1,05,2.87,100.0000,M,00.000,M,,*64
$GPGGA,000026.70,3559.36882306,N,05159.47933922,E,1,05,2.87,100.0000,M,00.000,M,,*65
$GPGGA,000026.80,3559.36882306,N,05159.47933922,E,1,05,2.87,100.0000,M,00.000,M,,*6A
$GPGGA,000026.90,3559.36882306,N,05159.47933922,E,1,05,2.87,100.0000,M,00.000,M,,*6B
$GPGGA,000027.00,3559.36882306,N,05159.47933922,E,1,05,2.87,100.0000,M,00.000,M,,*63
$GPGGA,000027.10,3559.36882306,N,05159.47933922,E,1,05,2.87,100.0000,M,00.000,M,,*62
$GPGGA,000027.20,3559.36882306,N,05159.47933922,E,1,05,2.87,100.0000,M,00.000,M,,*61
$GPGGA,000027.30,3559.36882306,N,05159.47933922,E,1,05,2.87,100.0000,M,00.000,M,,*60
$GPGGA,000027.40,3559.36882306,N,05159.47933922,E,1,05,2.87,100.0000,M,00.000,M,,*67
$GPGGA,000027.50,3559.36882306,N,05159.47933922,E,1,05,2.87,100.0000,M,00.000,M,,*66
$GPGGA,000027.60,3559.36882306,N,05159.47933922,E,1,05,2.87,100.0000,M,00.000,M,,*65
$GPGGA,000027.70,3559.36882306,N,05159.47933922,E,1,05,2.87,100.0000,M,00.000,M,,*64
$GPGGA,000027.80,3559.36882306,N,05159.47933922,E,1,05,2.87,100.0000,M,00.000,M,,*6B
$GPGGA,000027.90,3559.36882306,N,05159.47933922,E,1,05,2.87,100.0000,M,00.000,M,,*6A
$GPGGA,000028.00,3559.36882306,N,05159.47933922,E,1,05,2.87,100.0000,M,00.000,M,,*6C
$GPGGA,000028.10,3559.36882306,N,05159.47933922,E,1,05,2.87,100.0000,M,00.000,M,,*6D
$GPGGA,000028.20,3559.36882306,N,05159.47933922,E,1,05,2.87,100.0000,M,00.000,M,,*6E
$GPGGA,000028.30,3559.36882306,N,05159.47933922,E,1,05,2.87,100.0000,M,00.000,M,,*6F
$GPGGA,000028.40,3559.36882306,N,05159.47933922,E,1,05,2.87,100.0000,M,00.000,M,,*68
$GPGGA,000028.50,3559.36882306,N,05159.47933922,E,1,05,2.87,100.0000,M,00.000,M,,*69
$GPGGA,000028.60,3559.36882306,N,05159.47933922,E,1,05,2.87,100.0000,M,00.000,M,,*6A
$GPGGA,000028.70,3559.36882306,N,05159.47933922,E,1,05,2.87,100.0000,M,00.000,M,,*6B
$GPGGA,000028.80,3559.36882306,N,05159.47933922,E,1,05,2.87,100.0000,M,00.000,M,,*64
$GPGGA,000028.90,3559.36882306,N,05159.47933922,E,1,05,2.87,100.0000,M,00.000,M,,*65
$GPGGA,000029.00,3559.36882306,N,05159.47933922,E,1,05,2.87,100.0000,M,00.000,M,,*6D
$GPGGA,000029.10,3559.36882306,N,05159.47933922,E,1,05,2.87,100.0000,M,00.000,M,,*6C
$GPGGA,000029.20,3559.36882306,N,05159.47933922,E,1,05,2.87,100.0000,M,00.000,M,,*6F
$GPGGA,000029.30,3559.36882306,N,05159.47933922,E,1,05,2.87,100.0000,M,00.000,M,,*6E
$GPGGA,000029.40,3559.36882306,N,05159.47933922,E,1,05,2.87,100.0000,M,00.000,M,,*69
$GPGGA,000029.50,3559.36882306,N,05159.47933922,E,1,05,2.87,100.0000,M,00.000,M,,*68
$GPGGA,000029.60,3559.36882306,N,05159.47933922,E,1,05,2.87,100.0000,M,00.000,M,,*6B
$GPGGA,000029.70,3559.36882306,N,05159.47933922,E,1,05,2.87,100.0000,M,00.000,M,,*6A
$GPGGA,000029.80,3559.36882306,N,05159.47933922,E,1,05,2.87,100.0000,M,00.000,M,,*65
$GPGGA,000029.90,3559.36882306,N,05159.47933922,E,1,05,2.87,100.0000,M,00.000,M,,*64
$GPGGA,000030.00,3559.36882306,N,05159.47933922,E,1,05,2.87,100.0000,M,00.000,M,,*65
$GPGGA,000030.10,3559.36882306,N,05159.47933922,E,1,05,2.87,100.0000,M,00.000,M,,*64
$GPGGA,000030.20,3559.36882306,N,05159.47933922,E,1,05,2.87,100.0000,M,00.000,M,,*67
$GPGGA,000030.30,3559.36882306,N,05159.47933922,E,1,05,2.87,100.0000,M,00.000,M,,*66
$GPGGA,000030.40,3559.36882306,N,05159.47933922,E,1,05,2.87,100.0000,M,00.000,M,,*61
$GPGGA,000030.50,3559.36882306,N,05159.47933922,E,1,05,2.87,100.0000,M,00.000,M,,*60
$GPGGA,000030.60,3559.36882306,N,05159.47933922,E,1,05,2.87,100.0000,M,00.000,M,,*63
$GPGGA,000030.70,3559.36882306,N,05159.47933922,E,1,05,2.87,100.0000,M,00.000,M,,*62
$GPGGA,000030.80,3559.36882306,N,05159.47933922,E,1,05,2.87,100.0000,M,00.000,M,,*6D
$GPGGA,000030.90,3559.36882306,N,05159.47933922,E,1,05,2.87,100.0000,M,00.000,M,,*6C
$GPGGA,000031.00,3559.36882306,N,05159.47933922,E,1,05,2.87,100.0000,M,00.000,M,,*64
$GPGGA,000031.10,3559.36882306,N,05159.47933922,E,1,05,2.87,100.0000,M,00.000,M,,*65
$GPGGA,000031.20,3559.36882306,N,05159.47933922,E,1,05,2.87,100.0000,M,00.000,M,,*66
$GPGGA,000031.30,3559.36882306,N,05159.47933922,E,1,05,2.87,100.0000,M,00.000,M,,*67
$GPGGA,000031.40,3559.36882306,N,05159.47933922,E,1,05,2.87,100.0000,M,00.000,M,,*60
$GPGGA,000031.50,3559.36882306,N,05159.47933922,E,1,05,2.87,100.0000,M,00.000,M,,*61
$GPGGA,000031.60,3559.36882306,N,05159.47933922,E,1,05,2.87,100.0000,M,00.000,M,,*62
$GPGGA,000031.70,3559.36882306,N,05159.47933922,E,1,05,2.87,100.0000,M,00.000,M,,*63
$GPGGA,000031.80,3559.36882306,N,05159.47933922,E,1,05,2.87,100.0000,M,00.000,M,,*6C
$GPGGA,000031.90,3559.36882306,N,05159.47933922,E,1,05,2.87,100.0000,M,00.000,M,,*6D
$GPGGA,000032.00,3559.36882306,N,05159.47933922,E,1,05,2.87,100.0000,M,00.000,M,,*67
$GPGGA,000032.10,3559.36882306,N,05159.47933922,E,1,05,2.87,100.0000,M,00.000,M,,*66
$GPGGA,000032.20,3559.36882306,N,05159.47933922,E,1,05,2.87,100.0000,M,00.000,M,,*65
$GPGGA,000032.30,3559.36882306,N,05159.47933922,E,1,05,2.87,100.0000,M,00.000,M,,*64
$GPGGA,000032.40,3559.36882306,N,05159.47933922,E,1,05,2.87,100.0000,M,00.000,M,,*63
$GPGGA,000032.50,3559.36882306,N,05159.47933922,E,1,05,2.87,100.0000,M,00.000,M,,*62
$GPGGA,000032.60,3559.36882306,N,05159.47933922,E,1,05,2.87,100.0000,M,00.000,M,,*61
$GPGGA,000032.70,3559.36882306,N,05159.47933922,E,1,05,2.87,100.0000,M,00.000,M,,*60
$GPGGA,000032.80,3559.36882306,N,05159.47933922,E,1,05,2.87,100.0000,M,00.000,M,,*6F
$GPGGA,000032.90,3559.36882306,N,05159.47933922,E,1,05,2.87,100.0000,M,00.000,M,,*6E
$GPGGA,000033.00,3559.36882306,N,05159.47933922,E,1,05,2.87,100.0000,M,00.000,M,,*66
$GPGGA,000033.10,3559.36882306,N,05159.47933922,E,1,05,2.87,100.0000,M,00.000,M,,*67
$GPGGA,000033.20,3559.36882306,N,05159.47933922,E,1,05,2.87,100.0000,M,00.000,M,,*64
$GPGGA,000033.30,3559.36882306,N,05159.47933922,E,1,05,2.87,100.0000,M,00.000,M,,*65
$GPGGA,000033.40,3559.36882306,N,05159.47933922,E,1,05,2.87,100.0000,M,00.000,M,,*62
$GPGGA,000033.50,3559.36882306,N,05159.47933922,E,1,05,2.87,100.0000,M,00.000,M,,*63
$GPGGA,000033.60,3559.36882306,N,05159.47933922,E,1,05,2.87,100.0000,M,00.000,M,,*60
$GPGGA,000033.70,3559.36882306,N,05159.47933922,E,1,05,2.87,100.0000,M,00.000,M,,*61
$GPGGA,000033.80,3559.36882306,N,05159.47933922,E,1,05,2.87,100.0000,M,00.000,M,,*6E
$GPGGA,000033.90,3559.36882306,N,05159.47933922,E,1,05,2.87,100.0000,M,00.000,M,,*6F
$GPGGA,000034.00,3559.36882306,N,05159.47933922,E,1,05,2.87,100.0000,M,00.000,M,,*61
$GPGGA,000034.10,3559.36882306,N,05159.47933922,E,1,05,2.87,100.0000,M,00.000,M,,*60
$GPGGA,000034.20,3559.36882306,N,05159.47933922,E,1,05,2.87,100.0000,M,00.000,M,,*63
$GPGGA,000034.30,3559.36882306,N,05159.47933922,E,1,05,2.87,100.0000,M,00.000,M,,*62
$GPGGA,000034.40,3559.36882306,N,05159.47933922,E,1,05,2.87,100.0000,M,00.000,M,,*65
$GPGGA,000034.50,3559.36882306,N,05159.47933922,E,1,05,2.87,100.0000,M,00.000,M,,*64
$GPGGA,000034.60,3559.36882306,N,05159.47933922,E,1,05,2.87,100.0000,M,00.000,M,,*67
$GPGGA,000034.70,3559.36882306,N,05159.47933922,E,1,05,2.87,100.0000,M,00.000,M,,*66
$GPGGA,000034.80,3559.36882306,N,05159.47933922,E,1,05,2.87,100.0000,M,00.000,M,,*69
$GPGGA,000034.90,3559.36882306,N,05159.47933922,E,1,05,2.87,100.0000,M,00.000,M,,*68
$GPGGA,000035.00,3559.36882306,N,05159.47933922,E,1,05,2.87,100.0000,M,00.000,M,,*60
$GPGGA,000035.10,3559.36882306,N,05159.47933922,E,1,05,2.87,100.0000,M,00.000,M,,*61
$GPGGA,000035.20,3559.36882306,N,05159.47933922,E,1,05,2.87,100.0000,M,00.000,M,,*62
$GPGGA,000035.30,3559.36882306,N,05159.47933922,E,1,05,2.87,100.0000,M,00.000,M,,*63
$GPGGA,000035.40,3559.36882306,N,05159.47933922,E,1,05,2.87,100.0000,M,00.000,M,,*64
$GPGGA,000035.50,3559.36882306,N,05159.47933922,E,1,05,2.87,100.0000,M,00.000,M,,*65
$GPGGA,000035.60,3559.36882306,N,05159.47933922,E,1,05,2.87,100.0000,M,00.000,M,,*66
$GPGGA,000035.70,3559.36882306,N,05159.47933922,E,1,05,2.87,100.0000,M,00.000,M,,*67
$GPGGA,000035.80,3559.36882306,N,05159.47933922,E,1,05,2.87,100.0000,M,00.000,M,,*68
$GPGGA,000035.90,3559.36882306,N,05159.47933922,E,1,05,2.87,100.0000,M,00.000,M,,*69
$GPGGA,000036.00,3559.36882306,N,05159.47933922,E,1,05,2.87,100.0000,M,00.000,M,,*63
$GPGGA,000036.10,3559.36882306,N,05159.47933922,E,1,05,2.87,100.0000,M,00.000,M,,*62
$GPGGA,000036.20,3559.36882306,N,05159.47933922,E,1,05,2.87,100.0000,M,00.000,M,,*61
$GPGGA,000036.30,3559.36882306,N,05159.47933922,E,1,05,2.87,100.0000,M,00.000,M,,*60
$GPGGA,000036.40,3559.36882306,N,05159.47933922,E,1,05,2.87,100.0000,M,00.000,M,,*67
$GPGGA,000036.50,3559.36882306,N,05159.47933922,E,1,05,2.87,100.0000,M,00.000,M,,*66
$GPGGA,000036.60,3559.36882306,N,05159.47933922,E,1,05,2.87,100.0000,M,00.000,M,,*65
$GPGGA,000036.70,3559.36882306,N,05159.47933922,E,1,05,2.87,100.0000,M,00.000,M,,*64
$GPGGA,000036.80,3559.36882306,N,05159.47933922,E,1,05,2.87,100.0000,M,00.000,M,,*6B
$GPGGA,000036.90,3559.36882306,N,05159.47933922,E,1,05,2.87,100.0000,M,00.000,M,,*6A
$GPGGA,000037.00,3559.36882306,N,05159.47933922,E,1,05,2.87,100.0000,M,00.000,M,,*62
$GPGGA,000037.10,3559.36882306,N,05159.47933922,E,1,05,2.87,100.0000,M,00.000,M,,*63
$GPGGA,000037.20,3559.36882306,N,05159.47933922,E,1,05,2.87,100.0000,M,00.000,M,,*60
$GPGGA,000037.30,3559.36882306,N,05159.47933922,E,1,05,2.87,100.0000,M,00.000,M,,*61
$GPGGA,000037.40,3559.36882306,N,05159.47933922,E,1,05,2.87,100.0000,M,00.000,M,,*66
$GPGGA,000037.50,3559.36882306,N,05159.47933922,E,1,05,2.87,100.0000,M,00.000,M,,*67
$GPGGA,000037.60,3559.36882306,N,05159.47933922,E,1,05,2.87,100.0000,M,00.000,M,,*64
$GPGGA,000037.70,3559.36882306,N,05159.47933922,E,1,05,2.87,100.0000,M,00.000,M,,*65
$GPGGA,000037.80,3559.36882306,N,05159.47933922,E,1,05,2.87,100.0000,M,00.000,M,,*6A
$GPGGA,000037.90,3559.36882306,N,05159.47933922,E,1,05,2.87,100.0000,M,00.000,M,,*6B
$GPGGA,000038.00,3559.36882306,N,05159.47933922,E,1,05,2.87,100.0000,M,00.000,M,,*6D
$GPGGA,000038.10,3559.36882306,N,05159.47933922,E,1,05,2.87,100.0000,M,00.000,M,,*6C
$GPGGA,000038.20,3559.36882306,N,05159.47933922,E,1,05,2.87,100.0000,M,00.000,M,,*6F
$GPGGA,000038.30,3559.36882306,N,05159.47933922,E,1,05,2.87,100.0000,M,00.000,M,,*6E
$GPGGA,000038.40,3559.36882306,N,05159.47933922,E,1,05,2.87,100.0000,M,00.000,M,,*69
$GPGGA,000038.50,3559.36882306,N,05159.47933922,E,1,05,2.87,100.0000,M,00.000,M,,*68
$GPGGA,000038.60,3559.36882306,N,05159.47933922,E,1,05,2.87,100.0000,M,00.000,M,,*6B
$GPGGA,000038.70,3559.36882306,N,05159.47933922,E,1,05,2.87,100.0000,M,00.000,M,,*6A
$GPGGA,000038.80,3559.36882306,N,05159.47933922,E,1,05,2.87,100.0000,M,00.000,M,,*65
$GPGGA,000038.90,3559.36882306,N,05159.47933922,E,1,05,2.87,100.0000,M,00.000,M,,*64
$GPGGA,000039.00,3559.36882306,N,05159.47933922,E,1,05,2.87,100.0000,M,00.000,M,,*6C
$GPGGA,000039.10,3559.36882306,N,05159.47933922,E,1,05,2.87,100.0000,M,00.000,M,,*6D
$GPGGA,000039.20,3559.36882306,N,05159.47933922,E,1,05,2.87,100.0000,M,00.000,M,,*6E
$GPGGA,000039.30,3559.36882306,N,05159.47933922,E,1,05,2.87,100.0000,M,00.000,M,,*6F
$GPGGA,000039.40,3559.36882306,N,05159.47933922,E,1,05,2.87,100.0000,M,00.000,M,,*68
$GPGGA,000039.50,3559.36882306,N,05159.47933922,E,1,05,2.87,100.0000,M,00.000,M,,*69
$GPGGA,000039.60,3559.36882306,N,05159.47933922,E,1,05,2.87,100.0000,M,00.000,M,,*6A
$GPGGA,000039.70,3559.36882306,N,05159.47933922,E,1,05,2.87,100.0000,M,00.000,M,,*6B
$GPGGA,000039.80,3559.36882306,N,05159.47933922,E,1,05,2.87,100.0000,M,00.000,M,,*64
$GPGGA,000039.90,3559.36882306,N,05159.47933922,E,1,05,2.87,100.0000,M,00.000,M,,*65
$GPGGA,000040.00,3559.36882306,N,05159.47933922,E,1,05,2.87,100.0000,M,00.000,M,,*62
$GPGGA,000040.10,3559.36882306,N,05159.47933922,E,1,05,2.87,100.0000,M,00.000,M,,*63
$GPGGA,000040.20,3559.36882306,N,05159.47933922,E,1,05,2.87,100.0000,M,00.000,M,,*60
$GPGGA,000040.30,3559.36882306,N,05159.47933922,E,1,05,2.87,100.0000,M,00.000,M,,*61
$GPGGA,000040.40,3559.36882306,N,05159.47933922,E,1,05,2.87,100.0000,M,00.000,M,,*66
$GPGGA,000040.50,3559.36882306,N,05159.47933922,E,1,05,2.87,100.0000,M,00.000,M,,*67
$GPGGA,000040.60,3559.36882306,N,05159.47933922,E,1,05,2.87,100.0000,M,00.000,M,,*64
$GPGGA,000040.70,3559.36882306,N,05159.47933922,E,1,05,2.87,100.0000,M,00.000,M,,*65
$GPGGA,000040.80,3559.36882306,N,05159.47933922,E,1,05,2.87,100.0000,M,00.000,M,,*6A
$GPGGA,000040.90,3559.36882306,N,05159.47933922,E,1,05,2.87,100.0000,M,00.000,M,,*6B
$GPGGA,000041.00,3559.36882306,N,05159.47933922,E,1,05,2.87,100.0000,M,00.000,M,,*63
$GPGGA,000041.10,3559.36882306,N,05159.47933922,E,1,05,2.87,100.0000,M,00.000,M,,*62
$GPGGA,000041.20,3559.36882306,N,05159.47933922,E,1,05,2.87,100.0000,M,00.000,M,,*61
$GPGGA,000041.30,3559.36882306,N,05159.47933922,E,1,05,2.87,100.0000,M,00.000,M,,*60
$GPGGA,000041.40,3559.36882306,N,05159.47933922,E,1,05,2.87,100.0000,M,00.000,M,,*67
$GPGGA,000041.50,3559.36882306,N,05159.47933922,E,1,05,2.87,100.0000,M,00.000,M,,*66
$GPGGA,000041.60,3559.36882306,N,05159.47933922,E,1,05,2.87,100.0000,M,00.000,M,,*65
$GPGGA,000041.70,3559.36882306,N,05159.47933922,E,1,05,2.87,100.0000,M,00.000,M,,*64
$GPGGA,000041.80,3559.36882306,N,05159.47933922,E,1,05,2.87,100.0000,M,00.000,M,,*6B
$GPGGA,000041.90,3559.36882306,N,05159.47933922,E,1,05,2.87,100.0000,M,00.000,M,,*6A
$GPGGA,000042.00,3559.36882306,N,05159.47933922,E,1,05,2.87,100.0000,M,00.000,M,,*60
$GPGGA,000042.10,3559.36882306,N,05159.47933922,E,1,05,2.87,100.0000,M,00.000,M,,*61
$GPGGA,000042.20,3559.36882306,N,05159.47933922,E,1,05,2.87,100.0000,M,00.000,M,,*62
$GPGGA,000042.30,3559.36882306,N,05159.47933922,E,1,05,2.87,100.0000,M,00.000,M,,*63
$GPGGA,000042.40,3559.36882306,N,05159.47933922,E,1,05,2.87,100.0000,M,00.000,M,,*64
$GPGGA,000042.50,3559.36882306,N,05159.47933922,E,1,05,2.87,100.0000,M,00.000,M,,*65
$GPGGA,000042.60,3559.36882306,N,05159.47933922,E,1,05,2.87,100.0000,M,00.000,M,,*66
$GPGGA,000042.70,3559.36882306,N,05159.47933922,E,1,05,2.87,100.0000,M,00.000,M,,*67
$GPGGA,000042.80,3559.36882306,N,05159.47933922,E,1,05,2.87,100.0000,M,00.000,M,,*68
$GPGGA,000042.90,3559.36882306,N,05159.47933922,E,1,05,2.87,100.0000,M,00.000,M,,*69
$GPGGA,000043.00,3559.36882306,N,05159.47933922,E,1,05,2.87,100.0000,M,00.000,M,,*61
$GPGGA,000043.10,3559.36882306,N,05159.47933922,E,1,05,2.87,100.0000,M,00.000,M,,*60
$GPGGA,000043.20,3559.36882306,N,05159.47933922,E,1,05,2.87,100.0000,M,00.000,M,,*63
$GPGGA,000043.30,3559.36882306,N,05159.47933922,E,1,05,2.87,100.0000,M,00.000,M,,*62
$GPGGA,000043.40,3559.36882306,N,05159.47933922,E,1,05,2.87,100.0000,M,00.000,M,,*65
$GPGGA,000043.50,3559.36882306,N,05159.47933922,E,1,05,2.87,100.0000,M,00.000,M,,*64
$GPGGA,000043.60,3559.36882306,N,05159.47933922,E,1,05,2.87,100.0000,M,00.000,M,,*67
$GPGGA,000043.70,3559.36882306,N,05159.47933922,E,1,05,2.87,100.0000,M,00.000,M,,*66
$GPGGA,000043.80,3559.36882306,N,05159.47933922,E,1,05,2.87,100.0000,M,00.000,M,,*69
$GPGGA,000043.90,3559.36882306,N,05159.47933922,E,1,05,2.87,100.0000,M,00.000,M,,*68
$GPGGA,000044.00,3559.36882306,N,05159.47933922,E,1,05,2.87,100.0000,M,00.000,M,,*66
$GPGGA,000044.10,3559.36882306,N,05159.47933922,E,1,05,2.87,100.0000,M,00.000,M,,*67
$GPGGA,000044.20,3559.36882306,N,05159.47933922,E,1,05,2.87,100.0000,M,00.000,M,,*64
$GPGGA,000044.30,3559.36882306,N,05159.47933922,E,1,05,2.87,100.0000,M,00.000,M,,*65
$GPGGA,000044.40,3559.36882306,N,05159.47933922,E,1,05,2.87,100.0000,M,00.000,M,,*62
$GPGGA,000044.50,3559.36882306,N,05159.47933922,E,1,05,2.87,100.0000,M,00.000,M,,*63
$GPGGA,000044.60,3559.36882306,N,05159.47933922,E,1,05,2.87,100.0000,M,00.000,M,,*60
$GPGGA,000044.70,3559.36882306,N,05159.47933922,E,1,05,2.87,100.0000,M,00.000,M,,*61
$GPGGA,000044.80,3559.36882306,N,05159.47933922,E,1,05,2.87,100.0000,M,00.000,M,,*6E
$GPGGA,000044.90,3559.36882306,N,05159.47933922,E,1,05,2.87,100.0000,M,00.000,M,,*6F
$GPGGA,000045.00,3559.36882306,N,05159.47933922,E,1,05,2.87,100.0000,M,00.000,M,,*67
$GPGGA,000045.10,3559.36882306,N,05159.47933922,E,1,05,2.87,100.0000,M,00.000,M,,*66
$GPGGA,000045.20,3559.36882306,N,05159.47933922,E,1,05,2.87,100.0000,M,00.000,M,,*65
$GPGGA,000045.30,3559.36882306,N,05159.47933922,E,1,05,2.87,100.0000,M,00.000,M,,*64
$GPGGA,000045.40,3559.36882306,N,05159.47933922,E,1,05,2.87,100.0000,M,00.000,M,,*63
$GPGGA,000045.50,3559.36882306,N,05159.47933922,E,1,05,2.87,100.0000,M,00.000,M,,*62
$GPGGA,000045.60,3559.36882306,N,05159.47933922,E,1,05,2.87,100.0000,M,00.000,M,,*61
$GPGGA,000045.70,3559.36882306,N,05159.47933922,E,1,05,2.87,100.0000,M,00.000,M,,*60
$GPGGA,000045.80,3559.36882306,N,05159.47933922,E,1,05,2.87,100.0000,M,00.000,M,,*6F
$GPGGA,000045.90,3559.36882306,N,05159.47933922,E,1,05,2.87,100.0000,M,00.000,M,,*6E
$GPGGA,000046.00,3559.36882306,N,05159.47933922,E,1,05,2.87,100.0000,M,00.000,M,,*64
$GPGGA,000046.10,3559.36882306,N,05159.47933922,E,1,05,2.87,100.0000,M,00.000,M,,*65
$GPGGA,000046.20,3559.36882306,N,05159.47933922,E,1,05,2.87,100.0000,M,00.000,M,,*66
$GPGGA,000046.30,3559.36882306,N,05159.47933922,E,1,05,2.87,100.0000,M,00.000,M,,*67
$GPGGA,000046.40,3559.36882306,N,05159.47933922,E,1,05,2.87,100.0000,M,00.000,M,,*60
$GPGGA,000046.50,3559.36882306,N,05159.47933922,E,1,05,2.87,100.0000,M,00.000,M,,*61
$GPGGA,000046.60,3559.36882306,N,05159.47933922,E,1,05,2.87,100.0000,M,00.000,M,,*62
$GPGGA,000046.70,3559.36882306,N,05159.47933922,E,1,05,2.87,100.0000,M,00.000,M,,*63
$GPGGA,000046.80,3559.36882306,N,05159.47933922,E,1,05,2.87,100.0000,M,00.000,M,,*6C
$GPGGA,000046.90,3559.36882306,N,05159.47933922,E,1,05,2.87,100.0000,M,00.000,M,,*6D
$GPGGA,000047.00,3559.36882306,N,05159.47933922,E,1,05,2.87,100.0000,M,00.000,M,,*65
$GPGGA,000047.10,3559.36882306,N,05159.47933922,E,1,05,2.87,100.0000,M,00.000,M,,*64
$GPGGA,000047.20,3559.36882306,N,05159.47933922,E,1,05,2.87,100.0000,M,00.000,M,,*67
$GPGGA,000047.30,3559.36882306,N,05159.47933922,E,1,05,2.87,100.0000,M,00.000,M,,*66
$GPGGA,000047.40,3559.36882306,N,05159.47933922,E,1,05,2.87,100.0000,M,00.000,M,,*61
$GPGGA,000047.50,3559.36882306,N,05159.47933922,E,1,05,2.87,100.0000,M,00.000,M,,*60
$GPGGA,000047.60,3559.36882306,N,05159.47933922,E,1,05,2.87,100.0000,M,00.000,M,,*63
$GPGGA,000047.70,3559.36882306,N,05159.47933922,E,1,05,2.87,100.0000,M,00.000,M,,*62
$GPGGA,000047.80,3559.36882306,N,05159.47933922,E,1,05,2.87,100.0000,M,00.000,M,,*6D
$GPGGA,000047.90,3559.36882306,N,05159.47933922,E,1,05,2.87,100.0000,M,00.000,M,,*6C
$GPGGA,000048.00,3559.36882306,N,05159.47933922,E,1,05,2.87,100.0000,M,00.000,M,,*6A
$GPGGA,000048.10,3559.36882306,N,05159.47933922,E,1,05,2.87,100.0000,M,00.000,M,,*6B
$GPGGA,000048.20,3559.36882306,N,05159.47933922,E,1,05,2.87,100.0000,M,00.000,M,,*68
$GPGGA,000048.30,3559.36882306,N,05159.47933922,E,1,05,2.87,100.0000,M,00.000,M,,*69
$GPGGA,000048.40,3559.36882306,N,05159.47933922,E,1,05,2.87,100.0000,M,00.000,M,,*6E
$GPGGA,000048.50,3559.36882306,N,05159.47933922,E,1,05,2.87,100.0000,M,00.000,M,,*6F
$GPGGA,000048.60,3559.36882306,N,05159.47933922,E,1,05,2.87,100.0000,M,00.000,M,,*6C
$GPGGA,000048.70,3559.36882306,N,05159.47933922,E,1,05,2.87,100.0000,M,00.000,M,,*6D
$GPGGA,000048.80,3559.36882306,N,05159.47933922,E,1,05,2.87,100.0000,M,00.000,M,,*62
$GPGGA,000048.90,3559.36882306,N,05159.47933922,E,1,05,2.87,100.0000,M,00.000,M,,*63
$GPGGA,000049.00,3559.36882306,N,05159.47933922,E,1,05,2.87,100.0000,M,00.000,M,,*6B
$GPGGA,000049.10,3559.36882306,N,05159.47933922,E,1,05,2.87,100.0000,M,00.000,M,,*6A
$GPGGA,000049.20,3559.36882306,N,05159.47933922,E,1,05,2.87,100.0000,M,00.000,M,,*69
$GPGGA,000049.30,3559.36882306,N,05159.47933922,E,1,05,2.87,100.0000,M,00.000,M,,*68
$GPGGA,000049.40,3559.36882306,N,05159.47933922,E,1,05,2.87,100.0000,M,00.000,M,,*6F
$GPGGA,000049.50,3559.36882306,N,05159.47933922,E,1,05,2.87,100.0000,M,00.000,M,,*6E
$GPGGA,000049.60,3559.36882306,N,05159.47933922,E,1,05,2.87,100.0000,M,00.000,M,,*6D
$GPGGA,000049.70,3559.36882306,N,05159.47933922,E,1,05,2.87,100.0000,M,00.000,M,,*6C
$GPGGA,000049.80,3559.36882306,N,05159.47933922,E,1,05,2.87,100.0000,M,00.000,M,,*63
$GPGGA,000049.90,3559.36882306,N,05159.47933922,E,1,05,2.87,100.0000,M,00.000,M,,*62
$GPGGA,000050.00,3559.36882306,N,05159.47933922,E,1,05,2.87,100.0000,M,00.000,M,,*63
$GPGGA,000050.10,3559.36882306,N,05159.47933922,E,1,05,2.87,100.0000,M,00.000,M,,*62
$GPGGA,000050.20,3559.36882306,N,05159.47933922,E,1,05,2.87,100.0000,M,00.000,M,,*61
$GPGGA,000050.30,3559.36882306,N,05159.47933922,E,1,05,2.87,100.0000,M,00.000,M,,*60
$GPGGA,000050.40,3559.36882306,N,05159.47933922,E,1,05,2.87,100.0000,M,00.000,M,,*67
$GPGGA,000050.50,3559.36882306,N,05159.47933922,E,1,05,2.87,100.0000,M,00.000,M,,*66
$GPGGA,000050.60,3559.36882306,N,05159.47933922,E,1,05,2.87,100.0000,M,00.000,M,,*65
$GPGGA,000050.70,3559.36882306,N,05159.47933922,E,1,05,2.87,100.0000,M,00.000,M,,*64
$GPGGA,000050.80,3559.36882306,N,05159.47933922,E,1,05,2.87,100.0000,M,00.000,M,,*6B
$GPGGA,000050.90,3559.36882306,N,05159.47933922,E,1,05,2.87,100.0000,M,00.000,M,,*6A
$GPGGA,000051.00,3559.36882306,N,05159.47933922,E,1,05,2.87,100.0000,M,00.000,M,,*62
$GPGGA,000051.10,3559.36882306,N,05159.47933922,E,1,05,2.87,100.0000,M,00.000,M,,*63
$GPGGA,000051.20,3559.36882306,N,05159.47933922,E,1,05,2.87,100.0000,M,00.000,M,,*60
$GPGGA,000051.30,3559.36882306,N,05159.47933922,E,1,05,2.87,100.0000,M,00.000,M,,*61
$GPGGA,000051.40,3559.36882306,N,05159.47933922,E,1,05,2.87,100.0000,M,00.000,M,,*66
$GPGGA,000051.50,3559.36882306,N,05159.47933922,E,1,05,2.87,100.0000,M,00.000,M,,*67
$GPGGA,000051.60,3559.36882306,N,05159.47933922,E,1,05,2.87,100.0000,M,00.000,M,,*64
$GPGGA,000051.70,3559.36882306,N,05159.47933922,E,1,05,2.87,100.0000,M,00.000,M,,*65
$GPGGA,000051.80,3559.36882306,N,05159.47933922,E,1,05,2.87,100.0000,M,00.000,M,,*6A
$GPGGA,000051.90,3559.36882306,N,05159.47933922,E,1,05,2.87,100.0000,M,00.000,M,,*6B
$GPGGA,000052.00,3559.36882306,N,05159.47933922,E,1,05,2.87,100.0000,M,00.000,M,,*61
$GPGGA,000052.10,3559.36882306,N,05159.47933922,E,1,05,2.87,100.0000,M,00.000,M,,*60
$GPGGA,000052.20,3559.36882306,N,05159.47933922,E,1,05,2.87,100.0000,M,00.000,M,,*63
$GPGGA,000052.30,3559.36882306,N,05159.47933922,E,1,05,2.87,100.0000,M,00.000,M,,*62
$GPGGA,000052.40,3559.36882306,N,05159.47933922,E,1,05,2.87,100.0000,M,00.000,M,,*65
$GPGGA,000052.50,3559.36882306,N,05159.47933922,E,1,05,2.87,100.0000,M,00.000,M,,*64
$GPGGA,000052.60,3559.36882306,N,05159.47933922,E,1,05,2.87,100.0000,M,00.000,M,,*67
$GPGGA,000052.70,3559.36882306,N,05159.47933922,E,1,05,2.87,100.0000,M,00.000,M,,*66
$GPGGA,000052.80,3559.36882306,N,05159.47933922,E,1,05,2.87,100.0000,M,00.000,M,,*69
$GPGGA,000052.90,3559.36882306,N,05159.47933922,E,1,05,2.87,100.0000,M,00.000,M,,*68
$GPGGA,000053.00,3559.36882306,N,05159.47933922,E,1,05,2.87,100.0000,M,00.000,M,,*60
$GPGGA,000053.10,3559.36882306,N,05159.47933922,E,1,05,2.87,100.0000,M,00.000,M,,*61
$GPGGA,000053.20,3559.36882306,N,05159.47933922,E,1,05,2.87,100.0000,M,00.000,M,,*62
$GPGGA,000053.30,3559.36882306,N,05159.47933922,E,1,05,2.87,100.0000,M,00.000,M,,*63
$GPGGA,000053.40,3559.36882306,N,05159.47933922,E,1,05,2.87,100.0000,M,00.000,M,,*64
$GPGGA,000053.50,3559.36882306,N,05159.47933922,E,1,05,2.87,100.0000,M,00.000,M,,*65
$GPGGA,000053.60,3559.36882306,N,05159.47933922,E,1,05,2.87,100.0000,M,00.000,M,,*66
$GPGGA,000053.70,3559.36882306,N,05159.47933922,E,1,05,2.87,100.0000,M,00.000,M,,*67
$GPGGA,000053.80,3559.36882306,N,05159.47933922,E,1,05,2.87,100.0000,M,00.000,M,,*68
$GPGGA,000053.90,3559.36882306,N,05159.47933922,E,1,05,2.87,100.0000,M,00.000,M,,*69
$GPGGA,000054.00,3559.36882306,N,05159.47933922,E,1,05,2.87,100.0000,M,00.000,M,,*67
$GPGGA,000054.10,3559.36882306,N,05159.47933922,E,1,05,2.87,100.0000,M,00.000,M,,*66
$GPGGA,000054.20,3559.36882306,N,05159.47933922,E,1,05,2.87,100.0000,M,00.000,M,,*65
$GPGGA,000054.30,3559.36882306,N,05159.47933922,E,1,05,2.87,100.0000,M,00.000,M,,*64
$GPGGA,000054.40,3559.36882306,N,05159.47933922,E,1,05,2.87,100.0000,M,00.000,M,,*63
$GPGGA,000054.50,3559.36882306,N,05159.47933922,E,1,05,2.87,100.0000,M,00.000,M,,*62
$GPGGA,000054.60,3559.36882306,N,05159.47933922,E,1,05,2.87,100.0000,M,00.000,M,,*61
$GPGGA,000054.70,3559.36882306,N,05159.47933922,E,1,05,2.87,100.0000,M,00.000,M,,*60
$GPGGA,000054.80,3559.36882306,N,05159.47933922,E,1,05,2.87,100.0000,M,00.000,M,,*6F
$GPGGA,000054.90,3559.36882306,N,05159.47933922,E,1,05,2.87,100.0000,M,00.000,M,,*6E
$GPGGA,000055.00,3559.36882306,N,05159.47933922,E,1,05,2.87,100.0000,M,00.000,M,,*66
$GPGGA,000055.10,3559.36882306,N,05159.47933922,E,1,05,2.87,100.0000,M,00.000,M,,*67
$GPGGA,000055.20,3559.36882306,N,05159.47933922,E,1,05,2.87,100.0000,M,00.000,M,,*64
$GPGGA,000055.30,3559.36882306,N,05159.47933922,E,1,05,2.87,100.0000,M,00.000,M,,*65
$GPGGA,000055.40,3559.36882306,N,05159.47933922,E,1,05,2.87,100.0000,M,00.000,M,,*62
$GPGGA,000055.50,3559.36882306,N,05159.47933922,E,1,05,2.87,100.0000,M,00.000,M,,*63
$GPGGA,000055.60,3559.36882306,N,05159.47933922,E,1,05,2.87,100.0000,M,00.000,M,,*60
$GPGGA,000055.70,3559.36882306,N,05159.47933922,E,1,05,2.87,100.0000,M,00.000,M,,*61
$GPGGA,000055.80,3559.36882306,N,05159.47933922,E,1,05,2.87,100.0000,M,00.000,M,,*6E
$GPGGA,000055.90,3559.36882306,N,05159.47933922,E,1,05,2.87,100.0000,M,00.000,M,,*6F
$GPGGA,000056.00,3559.36882306,N,05159.47933922,E,1,05,2.87,100.0000,M,00.000,M,,*65
$GPGGA,000056.10,3559.36882306,N,05159.47933922,E,1,05,2.87,100.0000,M,00.000,M,,*64
$GPGGA,000056.20,3559.36882306,N,05159.47933922,E,1,05,2.87,100.0000,M,00.000,M,,*67
$GPGGA,000056.30,3559.36882306,N,05159.47933922,E,1,05,2.87,100.0000,M,00.000,M,,*66
$GPGGA,000056.40,3559.36882306,N,05159.47933922,E,1,05,2.87,100.0000,M,00.000,M,,*61
$GPGGA,000056.50,3559.36882306,N,05159.47933922,E,1,05,2.87,100.0000,M,00.000,M,,*60
$GPGGA,000056.60,3559.36882306,N,05159.47933922,E,1,05,2.87,100.0000,M,00.000,M,,*63
$GPGGA,000056.70,3559.36882306,N,05159.47933922,E,1,05,2.87,100.0000,M,00.000,M,,*62
$GPGGA,000056.80,3559.36882306,N,05159.47933922,E,1,05,2.87,100.0000,M,00.000,M,,*6D
$GPGGA,000056.90,3559.36882306,N,05159.47933922,E,1,05,2.87,100.0000,M,00.000,M,,*6C
$GPGGA,000057.00,3559.36882306,N,05159.47933922,E,1,05,2.87,100.0000,M,00.000,M,,*64
$GPGGA,000057.10,3559.36882306,N,05159.47933922,E,1,05,2.87,100.0000,M,00.000,M,,*65
$GPGGA,000057.20,3559.36882306,N,05159.47933922,E,1,05,2.87,100.0000,M,00.000,M,,*66
$GPGGA,000057.30,3559.36882306,N,05159.47933922,E,1,05,2.87,100.0000,M,00.000,M,,*67
$GPGGA,000057.40,3559.36882306,N,05159.47933922,E,1,05,2.87,100.0000,M,00.000,M,,*60
$GPGGA,000057.50,3559.36882306,N,05159.47933922,E,1,05,2.87,100.0000,M,00.000,M,,*61
$GPGGA,000057.60,3559.36882306,N,05159.47933922,E,1,05,2.87,100.0000,M,00.000,M,,*62
$GPGGA,000057.70,3559.36882306,N,05159.47933922,E,1,05,2.87,100.0000,M,00.000,M,,*63
$GPGGA,000057.80,3559.36882306,N,05159.47933922,E,1,05,2.87,100.0000,M,00.000,M,,*6C
$GPGGA,000057.90,3559.36882306,N,05159.47933922,E,1,05,2.87,100.0000,M,00.000,M,,*6D
$GPGGA,000058.00,3559.36882306,N,05159.47933922,E,1,05,2.87,100.0000,M,00.000,M,,*6B
$GPGGA,000058.10,3559.36882306,N,05159.47933922,E,1,05,2.87,100.0000,M,00.000,M,,*6A
$GPGGA,000058.20,3559.36882306,N,05159.47933922,E,1,05,2.87,100.0000,M,00.000,M,,*69
$GPGGA,000058.30,3559.36882306,N,05159.47933922,E,1,05,2.87,100.0000,M,00.000,M,,*68
$GPGGA,000058.40,3559.36882306,N,05159.47933922,E,1,05,2.87,100.0000,M,00.000,M,,*6F
$GPGGA,000058.50,3559.36882306,N,05159.47933922,E,1,05,2.87,100.0000,M,00.000,M,,*6E
$GPGGA,000058.60,3559.36882306,N,05159.47933922,E,1,05,2.87,100.0000,M,00.000,M,,*6D
$GPGGA,000058.70,3559.36882306,N,05159.47933922,E,1,05,2.87,100.0000,M,00.000,M,,*6C
$GPGGA,000058.80,3559.36882306,N,05159.47933922,E,1,05,2.87,100.0000,M,00.000,M,,*63
$GPGGA,000058.90,3559.36882306,N,05159.47933922,E,1,05,2.87,100.0000,M,00.000,M,,*62
$GPGGA,000059.00,3559.36882306,N,05159.47933922,E,1,05,2.87,100.0000,M,00.000,M,,*6A
$GPGGA,000059.10,3559.36882306,N,05159.47933922,E,1,05,2.87,100.0000,M,00.000,M,,*6B
$GPGGA,000059.20,3559.36882306,N,05159.47933922,E,1,05,2.87,100.0000,M,00.000,M,,*68
$GPGGA,000059.30,3559.36882306,N,05159.47933922,E,1,05,2.87,100.0000,M,00.000,M,,*69
$GPGGA,000059.40,3559.36882306,N,05159.47933922,E,1,05,2.87,100.0000,M,00.000,M,,*6E
$GPGGA,000059.50,3559.36882306,N,05159.47933922,E,1,05,2.87,100.0000,M,00.000,M,,*6F
$GPGGA,000059.60,3559.36882306,N,05159.47933922,E,1,05,2.87,100.0000,M,00.000,M,,*6C
$GPGGA,000059.70,3559.36882306,N,05159.47933922,E,1,05,2.87,100.0000,M,00.000,M,,*6D
$GPGGA,000059.80,3559.36882306,N,05159.47933922,E,1,05,2.87,100.0000,M,00.000,M,,*62
$GPGGA,000059.90,3559.36882306,N,05159.47933922,E,1,05,2.87,100.0000,M,00.000,M,,*63
$GPGGA,000100.00,3559.36882306,N,05159.47933922,E,1,05,2.87,100.0000,M,00.000,M,,*67
$GPGGA,000100.10,3559.36882433,N,05159.47934078,E,1,05,2.87,100.0000,M,00.000,M,,*66
$GPGGA,000100.20,3559.36883314,N,05159.47935162,E,1,05,2.87,100.0000,M,00.000,M,,*6D
$GPGGA,000100.30,3559.36885698,N,05159.47938097,E,1,05,2.87,100.0000,M,00.000,M,,*6D
$GPGGA,000100.40,3559.36890338,N,05159.47943805,E,1,05,2.87,100.0000,M,00.000,M,,*6E
$GPGGA,000100.50,3559.36897981,N,05159.47953210,E,1,05,2.87,100.0000,M,00.000,M,,*6F
$GPGGA,000100.60,3559.36909379,N,05159.47967235,E,1,05,2.87,100.0000,M,00.000,M,,*67
$GPGGA,000100.70,3559.36925282,N,05159.47986804,E,1,05,2.87,100.0000,M,00.000,M,,*6A
$GPGGA,000100.80,3559.36946440,N,05159.48012838,E,1,05,2.87,100.0000,M,00.000,M,,*6C
$GPGGA,000100.90,3559.36973603,N,05159.48046261,E,1,05,2.87,100.0000,M,00.000,M,,*69
$GPGGA,000101.00,3559.37007521,N,05159.48087997,E,1,05,2.87,100.0000,M,00.000,M,,*66
$GPGGA,000101.10,3559.37048945,N,05159.48138968,E,1,05,2.87,100.0000,M,00.000,M,,*67
$GPGGA,000101.20,3559.37098624,N,05159.48200097,E,1,05,2.87,100.0000,M,00.000,M,,*60
$GPGGA,000101.30,3559.37157309,N,05159.48272308,E,1,05,2.87,100.0000,M,00.000,M,,*69
$GPGGA,000101.40,3559.37225749,N,05159.48356523,E,1,05,2.87,100.0000,M,00.000,M,,*60
$GPGGA,000101.50,3559.37304696,N,05159.48453666,E,1,05,2.87,100.0000,M,00.000,M,,*60
$GPGGA,000101.60,3559.37394899,N,05159.48564659,E,1,05,2.87,100.0000,M,00.000,M,,*62
$GPGGA,000101.70,3559.37497109,N,05159.48690426,E,1,05,2.87,100.0000,M,00.000,M,,*65
$GPGGA,000101.80,3559.37612075,N,05159.48831890,E,1,05,2.87,100.0000,M,00.000,M,,*6B
$GPGGA,000101.90,3559.37740547,N,05159.48989974,E,1,05,2.87,100.0000,M,00.000,M,,*61
$GPGGA,000102.00,3559.37883277,N,05159.49165601,E,1,05,2.87,100.0000,M,00.000,M,,*69
$GPGGA,000102.10,3559.38040955,N,05159.49359622,E,1,05,2.87,100.0000,M,00.000,M,,*67
$GPGGA,000102.20,3559.38213451,N,05159.49571877,E,1,05,2.87,100.0000,M,00.000,M,,*6B
$GPGGA,000102.30,3559.38400030,N,05159.49801461,E,1,05,2.87,100.0000,M,00.000,M,,*6C
$GPGGA,000102.40,3559.38599940,N,05159.50047449,E,1,05,2.87,100.0000,M,00.000,M,,*6C
$GPGGA,000102.50,3559.38812433,N,05159.50308920,E,1,05,2.87,100.0000,M,00.000,M,,*60
$GPGGA,000102.60,3559.39036757,N,05159.50584951,E,1,05,2.87,100.0000,M,00.000,M,,*69
$GPGGA,000102.70,3559.39272163,N,05159.50874617,E,1,05,2.87,100.0000,M,00.000,M,,*64
$GPGGA,000102.80,3559.39517901,N,05159.51176997,E,1,05,2.87,100.0000,M,00.000,M,,*6E
$GPGGA,000102.90,3559.39773219,N,05159.51491167,E,1,05,2.87,100.0000,M,00.000,M,,*66
$GPGGA,000103.00,3559.40037369,N,05159.51816204,E,1,05,2.87,100.0000,M,00.000,M,,*64
$GPGGA,000103.10,3559.40309599,N,05159.52151185,E,1,05,2.87,100.0000,M,00.000,M,,*61
$GPGGA,000103.20,3559.40589160,N,05159.52495187,E,1,05,2.87,100.0000,M,00.000,M,,*61
$GPGGA,000103.30,3559.40875302,N,05159.52847288,E,1,05,2.87,100.0000,M,00.000,M,,*67
$GPGGA,000103.40,3559.41167274,N,05159.53206563,E,1,05,2.87,100.0000,M,00.000,M,,*67
$GPGGA,000103.50,3559.41464326,N,05159.53572090,E,1,05,2.87,100.0000,M,00.000,M,,*6B
$GPGGA,000103.60,3559.41765708,N,05159.53942946,E,1,05,2.87,100.0000,M,00.000,M,,*6F
$GPGGA,000103.70,3559.42070670,N,05159.54318207,E,1,05,2.87,100.0000,M,00.000,M,,*6C
$GPGGA,000103.80,3559.42378462,N,05159.54696952,E,1,05,2.87,100.0000,M,00.000,M,,*61
$GPGGA,000103.90,3559.42688333,N,05159.55078256,E,1,05,2.87,100.0000,M,00.000,M,,*61
$GPGGA,000104.00,3559.42999533,N,05159.55461196,E,1,05,2.87,100.0000,M,00.000,M,,*65
$GPGGA,000104.10,3559.43311314,N,05159.55844852,E,1,05,2.87,100.0000,M,00.000,M,,*66
$GPGGA,000104.20,3559.43623148,N,05159.56228584,E,1,05,2.87,100.0000,M,00.000,M,,*6F
$GPGGA,000104.30,3559.43934977,N,05159.56612323,E,1,05,2.87,100.0000,M,00.000,M,,*65
$GPGGA,000104.40,3559.44246801,N,05159.56996070,E,1,05,2.87,100.0000,M,00.000,M,,*6D
$GPGGA,000104.50,3559.44558618,N,05159.57379823,E,1,05,2.87,100.0000,M,00.000,M,,*66
$GPGGA,000104.60,3559.44870430,N,05159.57763584,E,1,05,2.87,100.0000,M,00.000,M,,*65
$GPGGA,000104.70,3559.45182236,N,05159.58147352,E,1,05,2.87,100.0000,M,00.000,M,,*63
$GPGGA,000104.80,3559.45494037,N,05159.58531127,E,1,05,2.87,100.0000,M,00.000,M,,*68
$GPGGA,000104.90,3559.45805832,N,05159.58914909,E,1,05,2.87,100.0000,M,00.000,M,,*6F
$GPGGA,000105.00,3559.46117621,N,05159.59298699,E,1,05,2.87,100.0000,M,00.000,M,,*6A
$GPGGA,000105.10,3559.46429405,N,05159.59682496,E,1,05,2.87,100.0000,M,00.000,M,,*65
$GPGGA,000105.20,3559.46741183,N,05159.60066300,E,1,05,2.87,100.0000,M,00.000,M,,*6E
$GPGGA,000105.30,3559.47052955,N,05159.60450111,E,1,05,2.87,100.0000,M,00.000,M,,*6B
$GPGGA,000105.40,3559.47364722,N,05159.60833929,E,1,05,2.87,100.0000,M,00.000,M,,*6E
$GPGGA,000105.50,3559.47676483,N,05159.61217755,E,1,05,2.87,100.0000,M,00.000,M,,*69
$GPGGA,000105.60,3559.47988239,N,05159.61601587,E,1,05,2.87,100.0000,M,00.000,M,,*6D
$GPGGA,000105.70,3559.48299988,N,05159.61985427,E,1,05,2.87,100.0000,M,00.000,M,,*61
$GPGGA,000105.80,3559.48611732,N,05159.62369274,E,1,05,2.87,100.0000,M,00.000,M,,*6E
$GPGGA,000105.90,3559.48923471,N,05159.62753129,E,1,05,2.87,100.0000,M,00.000,M,,*63
$GPGGA,000106.00,3559.49235204,N,05159.63136990,E,1,05,2.87,100.0000,M,00.000,M,,*6E
$GPGGA,000106.10,3559.49546931,N,05159.63520859,E,1,05,2.87,100.0000,M,00.000,M,,*66
$GPGGA,000106.20,3559.49858652,N,05159.63904735,E,1,05,2.87,100.0000,M,00.000,M,,*62
$GPGGA,000106.30,3559.50170368,N,05159.64288618,E,1,05,2.87,100.0000,M,00.000,M,,*62
$GPGGA,000106.40,3559.50482078,N,05159.64672508,E,1,05,2.87,100.0000,M,00.000,M,,*6C
$GPGGA,000106.50,3559.50793783,N,05159.65056406,E,1,05,2.87,100.0000,M,00.000,M,,*63
$GPGGA,000106.60,3559.51105482,N,05159.65440310,E,1,05,2.87,100.0000,M,00.000,M,,*69
$GPGGA,000106.70,3559.51417175,N,05159.65824222,E,1,05,2.87,100.0000,M,00.000,M,,*6D
$GPGGA,000106.80,3559.51728862,N,05159.66208141,E,1,05,2.87,100.0000,M,00.000,M,,*63
$GPGGA,000106.90,3559.52040544,N,05159.66592068,E,1,05,2.87,100.0000,M,00.000,M,,*6F
$GPGGA,000107.00,3559.52352220,N,05159.66976001,E,1,05,2.87,100.0000,M,00.000,M,,*6B
$GPGGA,000107.10,3559.52663891,N,05159.67359942,E,1,05,2.87,100.0000,M,00.000,M,,*65
$GPGGA,000107.20,3559.52975556,N,05159.67743890,E,1,05,2.87,100.0000,M,00.000,M,,*69
$GPGGA,000107.30,3559.53287215,N,05159.68127845,E,1,05,2.87,100.0000,M,00.000,M,,*6C
$GPGGA,000107.40,3559.53598869,N,05159.68511807,E,1,05,2.87,100.0000,M,00.000,M,,*64
$GPGGA,000107.50,3559.53910517,N,05159.68895776,E,1,05,2.87,100.0000,M,00.000,M,,*65
$GPGGA,000107.60,3559.54222159,N,05159.69279753,E,1,05,2.87,100.0000,M,00.000,M,,*6B
$GPGGA,000107.70,3559.54533796,N,05159.69663737,E,1,05,2.87,100.0000,M,00.000,M,,*65
$GPGGA,000107.80,3559.54845427,N,05159.70047728,E,1,05,2.87,100.0000,M,00.000,M,,*69
$GPGGA,000107.90,3559.55157052,N,05159.70431726,E,1,05,2.87,100.0000,M,00.000,M,,*6E
$GPGGA,000108.00,3559.55468672,N,05159.70815731,E,1,05,2.87,100.0000,M,00.000,M,,*69
$GPGGA,000108.10,3559.55780286,N,05159.71199744,E,1,05,2.87,100.0000,M,00.000,M,,*6C
$GPGGA,000108.20,3559.56091894,N,05159.71583764,E,1,05,2.87,100.0000,M,00.000,M,,*6F
$GPGGA,000108.30,3559.56403497,N,05159.71967791,E,1,05,2.87,100.0000,M,00.000,M,,*62
$GPGGA,000108.40,3559.56715094,N,05159.72351825,E,1,05,2.87,100.0000,M,00.000,M,,*6A
$GPGGA,000108.50,3559.57026685,N,05159.72735866,E,1,05,2.87,100.0000,M,00.000,M,,*6A
$GPGGA,000108.60,3559.57338271,N,05159.73119915,E,1,05,2.87,100.0000,M,00.000,M,,*66
$GPGGA,000108.70,3559.57649851,N,05159.73503971,E,1,05,2.87,100.0000,M,00.000,M,,*61
$GPGGA,000108.80,3559.57961426,N,05159.73888034,E,1,05,2.87,100.0000,M,00.000,M,,*61
$GPGGA,000108.90,3559.58272995,N,05159.74272104,E,1,05,2.87,100.0000,M,00.000,M,,*69
$GPGGA,000109.00,3559.58584558,N,05159.74656181,E,1,05,2.87,100.0000,M,00.000,M,,*6D
$GPGGA,000109.10,3559.58896115,N,05159.75040266,E,1,05,2.87,100.0000,M,00.000,M,,*65
$GPGGA,000109.20,3559.59207667,N,05159.75424357,E,1,05,2.87,100.0000,M,00.000,M,,*62
$GPGGA,000109.30,3559.59519213,N,05159.75808456,E,1,05,2.87,100.0000,M,00.000,M,,*68
$GPGGA,000109.40,3559.59830754,N,05159.76192562,E,1,05,2.87,100.0000,M,00.000,M,,*60
$GPGGA,000109.50,3559.60142288,N,05159.76576676,E,1,05,2.87,100.0000,M,00.000,M,,*6B
$GPGGA,000109.60,3559.60453818,N,05159.76960796,E,1,05,2.87,100.0000,M,00.000,M,,*6A
$GPGGA,000109.70,3559.60765341,N,05159.77344924,E,1,05,2.87,100.0000,M,00.000,M,,*60
$GPGGA,000109.80,3559.61076859,N,05159.77729059,E,1,05,2.87,100.0000,M,00.000,M,,*65
$GPGGA,000109.90,3559.61388371,N,05159.78113201,E,1,05,2.87,100.0000,M,00.000,M,,*68
$GPGGA,000110.00,3559.61699878,N,05159.78497350,E,1,05,2.87,100.0000,M,00.000,M,,*62
$GPGGA,000110.10,3559.62011379,N,05159.78881506,E,1,05,2.87,100.0000,M,00.000,M,,*62
$GPGGA,000110.20,3559.62322874,N,05159.79265670,E,1,05,2.87,100.0000,M,00.000,M,,*67
$GPGGA,000110.30,3559.62634363,N,05159.79649841,E,1,05,2.87,100.0000,M,00.000,M,,*6F
$GPGGA,000110.40,3559.62945847,N,05159.80034019,E,1,05,2.87,100.0000,M,00.000,M,,*63
