$GPGGA,055641.00,3525.78789904,N,05105.10480000,E,1,05,2.87,100000.0000,M,00.000,M,,*5F
$GPGGA,055641.10,3525.78789904,N,05105.10480000,E,1,05,2.87,100000.0000,M,00.000,M,,*5E
$GPGGA,055641.20,3525.78789904,N,05105.10480000,E,1,05,2.87,100000.0000,M,00.000,M,,*5D
$GPGGA,055641.30,3525.78789904,N,05105.10480000,E,1,05,2.87,100000.0000,M,00.000,M,,*5C
$GPGGA,055641.40,3525.78789904,N,05105.10480000,E,1,05,2.87,100000.0000,M,00.000,M,,*5B
$GPGGA,055641.50,3525.78789904,N,05105.10480000,E,1,05,2.87,100000.0000,M,00.000,M,,*5A
$GPGGA,055641.60,3525.78789904,N,05105.10480000,E,1,05,2.87,100000.0000,M,00.000,M,,*59
$GPGGA,055641.70,3525.78789904,N,05105.10480000,E,1,05,2.87,100000.0000,M,00.000,M,,*58
$GPGGA,055641.80,3525.78789904,N,05105.10480000,E,1,05,2.87,100000.0000,M,00.000,M,,*57
$GPGGA,055641.90,3525.78789904,N,05105.10480000,E,1,05,2.87,100000.0000,M,00.000,M,,*56
$GPGGA,055642.00,3525.78789904,N,05105.10480000,E,1,05,2.87,100000.0000,M,00.000,M,,*5C
$GPGGA,055642.10,3525.78789904,N,05105.10480000,E,1,05,2.87,100000.0000,M,00.000,M,,*5D
$GPGGA,055642.20,3525.78789904,N,05105.10480000,E,1,05,2.87,100000.0000,M,00.000,M,,*5E
$GPGGA,055642.30,3525.78789904,N,05105.10480000,E,1,05,2.87,100000.0000,M,00.000,M,,*5F
$GPGGA,055642.40,3525.78789904,N,05105.10480000,E,1,05,2.87,100000.0000,M,00.000,M,,*58
$GPGGA,055642.50,3525.78789904,N,05105.10480000,E,1,05,2.87,100000.0000,M,00.000,M,,*59
$GPGGA,055642.60,3525.78789904,N,05105.10480000,E,1,05,2.87,100000.0000,M,00.000,M,,*5A
$GPGGA,055642.70,3525.78789904,N,05105.10480000,E,1,05,2.87,100000.0000,M,00.000,M,,*5B
$GPGGA,055642.80,3525.78789904,N,05105.10480000,E,1,05,2.87,100000.0000,M,00.000,M,,*54
$GPGGA,055642.90,3525.78789904,N,05105.10480000,E,1,05,2.87,100000.0000,M,00.000,M,,*55
$GPGGA,055643.00,3525.78789904,N,05105.10480000,E,1,05,2.87,100000.0000,M,00.000,M,,*5D
$GPGGA,055643.10,3525.78789904,N,05105.10480000,E,1,05,2.87,100000.0000,M,00.000,M,,*5C
$GPGGA,055643.20,3525.78789904,N,05105.10480000,E,1,05,2.87,100000.0000,M,00.000,M,,*5F
$GPGGA,055643.30,3525.78789904,N,05105.10480000,E,1,05,2.87,100000.0000,M,00.000,M,,*5E
$GPGGA,055643.40,3525.78789904,N,05105.10480000,E,1,05,2.87,100000.0000,M,00.000,M,,*59
$GPGGA,055643.50,3525.78789904,N,05105.10480000,E,1,05,2.87,100000.0000,M,00.000,M,,*58
$GPGGA,055643.60,3525.78789904,N,05105.10480000,E,1,05,2.87,100000.0000,M,00.000,M,,*5B
$GPGGA,055643.70,3525.78789904,N,05105.10480000,E,1,05,2.87,100000.0000,M,00.000,M,,*5A
$GPGGA,055643.80,3525.78789904,N,05105.10480000,E,1,05,2.87,100000.0000,M,00.000,M,,*55
$GPGGA,055643.90,3525.78789904,N,05105.10480000,E,1,05,2.87,100000.0000,M,00.000,M,,*54
$GPGGA,055644.00,3525.78789904,N,05105.10480000,E,1,05,2.87,100000.0000,M,00.000,M,,*5A
$GPGGA,055644.10,3525.78789904,N,05105.10480000,E,1,05,2.87,100000.0000,M,00.000,M,,*5B
$GPGGA,055644.20,3525.78789904,N,05105.10480000,E,1,05,2.87,100000.0000,M,00.000,M,,*58
$GPGGA,055644.30,3525.78789904,N,05105.10480000,E,1,05,2.87,100000.0000,M,00.000,M,,*59
$GPGGA,055644.40,3525.78789904,N,05105.10480000,E,1,05,2.87,100000.0000,M,00.000,M,,*5E
$GPGGA,055644.50,3525.78789904,N,05105.10480000,E,1,05,2.87,100000.0000,M,00.000,M,,*5F
$GPGGA,055644.60,3525.78789904,N,05105.10480000,E,1,05,2.87,100000.0000,M,00.000,M,,*5C
$GPGGA,055644.70,3525.78789904,N,05105.10480000,E,1,05,2.87,100000.0000,M,00.000,M,,*5D
$GPGGA,055644.80,3525.78789904,N,05105.10480000,E,1,05,2.87,100000.0000,M,00.000,M,,*52
$GPGGA,055644.90,3525.78789904,N,05105.10480000,E,1,05,2.87,100000.0000,M,00.000,M,,*53
$GPGGA,055645.00,3525.78789904,N,05105.10480000,E,1,05,2.87,100000.0000,M,00.000,M,,*5B
$GPGGA,055645.10,3525.78789904,N,05105.10480000,E,1,05,2.87,100000.0000,M,00.000,M,,*5A
$GPGGA,055645.20,3525.78789904,N,05105.10480000,E,1,05,2.87,100000.0000,M,00.000,M,,*59
$GPGGA,055645.30,3525.78789904,N,05105.10480000,E,1,05,2.87,100000.0000,M,00.000,M,,*58
$GPGGA,055645.40,3525.78789904,N,05105.10480000,E,1,05,2.87,100000.0000,M,00.000,M,,*5F
$GPGGA,055645.50,3525.78789904,N,05105.10480000,E,1,05,2.87,100000.0000,M,00.000,M,,*5E
$GPGGA,055645.60,3525.78789904,N,05105.10480000,E,1,05,2.87,100000.0000,M,00.000,M,,*5D
$GPGGA,055645.70,3525.78789904,N,05105.10480000,E,1,05,2.87,100000.0000,M,00.000,M,,*5C
$GPGGA,055645.80,3525.78789904,N,05105.10480000,E,1,05,2.87,100000.0000,M,00.000,M,,*53
$GPGGA,055645.90,3525.78789904,N,05105.10480000,E,1,05,2.87,100000.0000,M,00.000,M,,*52
$GPGGA,055646.00,3525.78789904,N,05105.10480000,E,1,05,2.87,100000.0000,M,00.000,M,,*58
$GPGGA,055646.10,3525.78789904,N,05105.10480000,E,1,05,2.87,100000.0000,M,00.000,M,,*59
$GPGGA,055646.20,3525.78789904,N,05105.10480000,E,1,05,2.87,100000.0000,M,00.000,M,,*5A
$GPGGA,055646.30,3525.78789904,N,05105.10480000,E,1,05,2.87,100000.0000,M,00.000,M,,*5B
$GPGGA,055646.40,3525.78789904,N,05105.10480000,E,1,05,2.87,100000.0000,M,00.000,M,,*5C
$GPGGA,055646.50,3525.78789904,N,05105.10480000,E,1,05,2.87,100000.0000,M,00.000,M,,*5D
$GPGGA,055646.60,3525.78789904,N,05105.10480000,E,1,05,2.87,100000.0000,M,00.000,M,,*5E
$GPGGA,055646.70,3525.78789904,N,05105.10480000,E,1,05,2.87,100000.0000,M,00.000,M,,*5F
$GPGGA,055646.80,3525.78789904,N,05105.10480000,E,1,05,2.87,100000.0000,M,00.000,M,,*50
$GPGGA,055646.90,3525.78789904,N,05105.10480000,E,1,05,2.87,100000.0000,M,00.000,M,,*51
$GPGGA,055647.00,3525.78789904,N,05105.10480000,E,1,05,2.87,100000.0000,M,00.000,M,,*59
$GPGGA,055647.10,3525.78789904,N,05105.10480000,E,1,05,2.87,100000.0000,M,00.000,M,,*58
$GPGGA,055647.20,3525.78789904,N,05105.10480000,E,1,05,2.87,100000.0000,M,00.000,M,,*5B
$GPGGA,055647.30,3525.78789904,N,05105.10480000,E,1,05,2.87,100000.0000,M,00.000,M,,*5A
$GPGGA,055647.40,3525.78789904,N,05105.10480000,E,1,05,2.87,100000.0000,M,00.000,M,,*5D
$GPGGA,055647.50,3525.78789904,N,05105.10480000,E,1,05,2.87,100000.0000,M,00.000,M,,*5C
$GPGGA,055647.60,3525.78789904,N,05105.10480000,E,1,05,2.87,100000.0000,M,00.000,M,,*5F
$GPGGA,055647.70,3525.78789904,N,05105.10480000,E,1,05,2.87,100000.0000,M,00.000,M,,*5E
$GPGGA,055647.80,3525.78789904,N,05105.10480000,E,1,05,2.87,100000.0000,M,00.000,M,,*51
$GPGGA,055647.90,3525.78789904,N,05105.10480000,E,1,05,2.87,100000.0000,M,00.000,M,,*50
$GPGGA,055648.00,3525.78789904,N,05105.10480000,E,1,05,2.87,100000.0000,M,00.000,M,,*56
$GPGGA,055648.10,3525.78789904,N,05105.10480000,E,1,05,2.87,100000.0000,M,00.000,M,,*57
$GPGGA,055648.20,3525.78789904,N,05105.10480000,E,1,05,2.87,100000.0000,M,00.000,M,,*54
$GPGGA,055648.30,3525.78789904,N,05105.10480000,E,1,05,2.87,100000.0000,M,00.000,M,,*55
$GPGGA,055648.40,3525.78789904,N,05105.10480000,E,1,05,2.87,100000.0000,M,00.000,M,,*52
$GPGGA,055648.50,3525.78789904,N,05105.10480000,E,1,05,2.87,100000.0000,M,00.000,M,,*53
$GPGGA,055648.60,3525.78789904,N,05105.10480000,E,1,05,2.87,100000.0000,M,00.000,M,,*50
$GPGGA,055648.70,3525.78789904,N,05105.10480000,E,1,05,2.87,100000.0000,M,00.000,M,,*51
$GPGGA,055648.80,3525.78789904,N,05105.10480000,E,1,05,2.87,100000.0000,M,00.000,M,,*5E
$GPGGA,055648.90,3525.78789904,N,05105.10480000,E,1,05,2.87,100000.0000,M,00.000,M,,*5F
$GPGGA,055649.00,3525.78789904,N,05105.10480000,E,1,05,2.87,100000.0000,M,00.000,M,,*57
$GPGGA,055649.10,3525.78789904,N,05105.10480000,E,1,05,2.87,100000.0000,M,00.000,M,,*56
$GPGGA,055649.20,3525.78789904,N,05105.10480000,E,1,05,2.87,100000.0000,M,00.000,M,,*55
$GPGGA,055649.30,3525.78789904,N,05105.10480000,E,1,05,2.87,100000.0000,M,00.000,M,,*54
$GPGGA,055649.40,3525.78789904,N,05105.10480000,E,1,05,2.87,100000.0000,M,00.000,M,,*53
$GPGGA,055649.50,3525.78789904,N,05105.10480000,E,1,05,2.87,100000.0000,M,00.000,M,,*52
$GPGGA,055649.60,3525.78789904,N,05105.10480000,E,1,05,2.87,100000.0000,M,00.000,M,,*51
$GPGGA,055649.70,3525.78789904,N,05105.10480000,E,1,05,2.87,100000.0000,M,00.000,M,,*50
$GPGGA,055649.80,3525.78789904,N,05105.10480000,E,1,05,2.87,100000.0000,M,00.000,M,,*5F
$GPGGA,055649.90,3525.78789904,N,05105.10480000,E,1,05,2.87,100000.0000,M,00.000,M,,*5E
$GPGGA,055650.00,3525.78789904,N,05105.10480000,E,1,05,2.87,100000.0000,M,00.000,M,,*5F
$GPGGA,055650.10,3525.78789904,N,05105.10480000,E,1,05,2.87,100000.0000,M,00.000,M,,*5E
$GPGGA,055650.20,3525.78789904,N,05105.10480000,E,1,05,2.87,100000.0000,M,00.000,M,,*5D
$GPGGA,055650.30,3525.78789904,N,05105.10480000,E,1,05,2.87,100000.0000,M,00.000,M,,*5C
$GPGGA,055650.40,3525.78789904,N,05105.10480000,E,1,05,2.87,100000.0000,M,00.000,M,,*5B
$GPGGA,055650.50,3525.78789904,N,05105.10480000,E,1,05,2.87,100000.0000,M,00.000,M,,*5A
$GPGGA,055650.60,3525.78789904,N,05105.10480000,E,1,05,2.87,100000.0000,M,00.000,M,,*59
$GPGGA,055650.70,3525.78789904,N,05105.10480000,E,1,05,2.87,100000.0000,M,00.000,M,,*58
$GPGGA,055650.80,3525.78789904,N,05105.10480000,E,1,05,2.87,100000.0000,M,00.000,M,,*57
$GPGGA,055650.90,3525.78789904,N,05105.10480000,E,1,05,2.87,100000.0000,M,00.000,M,,*56
$GPGGA,055651.00,3525.78789904,N,05105.10480000,E,1,05,2.87,100000.0000,M,00.000,M,,*5E
$GPGGA,055651.10,3525.78789904,N,05105.10480000,E,1,05,2.87,100000.0000,M,00.000,M,,*5F
$GPGGA,055651.20,3525.78789904,N,05105.10480000,E,1,05,2.87,100000.0000,M,00.000,M,,*5C
$GPGGA,055651.30,3525.78789904,N,05105.10480000,E,1,05,2.87,100000.0000,M,00.000,M,,*5D
$GPGGA,055651.40,3525.78789904,N,05105.10480000,E,1,05,2.87,100000.0000,M,00.000,M,,*5A
$GPGGA,055651.50,3525.78789904,N,05105.10480000,E,1,05,2.87,100000.0000,M,00.000,M,,*5B
$GPGGA,055651.60,3525.78789904,N,05105.10480000,E,1,05,2.87,100000.0000,M,00.000,M,,*58
$GPGGA,055651.70,3525.78789904,N,05105.10480000,E,1,05,2.87,100000.0000,M,00.000,M,,*59
$GPGGA,055651.80,3525.78789904,N,05105.10480000,E,1,05,2.87,100000.0000,M,00.000,M,,*56
$GPGGA,055651.90,3525.78789904,N,05105.10480000,E,1,05,2.87,100000.0000,M,00.000,M,,*57
$GPGGA,055652.00,3525.78789904,N,05105.10480000,E,1,05,2.87,100000.0000,M,00.000,M,,*5D
$GPGGA,055652.10,3525.78789904,N,05105.10480000,E,1,05,2.87,100000.0000,M,00.000,M,,*5C
$GPGGA,055652.20,3525.78789904,N,05105.10480000,E,1,05,2.87,100000.0000,M,00.000,M,,*5F
$GPGGA,055652.30,3525.78789904,N,05105.10480000,E,1,05,2.87,100000.0000,M,00.000,M,,*5E
$GPGGA,055652.40,3525.78789904,N,05105.10480000,E,1,05,2.87,100000.0000,M,00.000,M,,*59
$GPGGA,055652.50,3525.78789904,N,05105.10480000,E,1,05,2.87,100000.0000,M,00.000,M,,*58
$GPGGA,055652.60,3525.78789904,N,05105.10480000,E,1,05,2.87,100000.0000,M,00.000,M,,*5B
$GPGGA,055652.70,3525.78789904,N,05105.10480000,E,1,05,2.87,100000.0000,M,00.000,M,,*5A
$GPGGA,055652.80,3525.78789904,N,05105.10480000,E,1,05,2.87,100000.0000,M,00.000,M,,*55
$GPGGA,055652.90,3525.78789904,N,05105.10480000,E,1,05,2.87,100000.0000,M,00.000,M,,*54
$GPGGA,055653.00,3525.78789904,N,05105.10480000,E,1,05,2.87,100000.0000,M,00.000,M,,*5C
$GPGGA,055653.10,3525.78789904,N,05105.10480000,E,1,05,2.87,100000.0000,M,00.000,M,,*5D
$GPGGA,055653.20,3525.78789904,N,05105.10480000,E,1,05,2.87,100000.0000,M,00.000,M,,*5E
$GPGGA,055653.30,3525.78789904,N,05105.10480000,E,1,05,2.87,100000.0000,M,00.000,M,,*5F
$GPGGA,055653.40,3525.78789904,N,05105.10480000,E,1,05,2.87,100000.0000,M,00.000,M,,*58
$GPGGA,055653.50,3525.78789904,N,05105.10480000,E,1,05,2.87,100000.0000,M,00.000,M,,*59
$GPGGA,055653.60,3525.78789904,N,05105.10480000,E,1,05,2.87,100000.0000,M,00.000,M,,*5A
$GPGGA,055653.70,3525.78789904,N,05105.10480000,E,1,05,2.87,100000.0000,M,00.000,M,,*5B
$GPGGA,055653.80,3525.78789904,N,05105.10480000,E,1,05,2.87,100000.0000,M,00.000,M,,*54
$GPGGA,055653.90,3525.78789904,N,05105.10480000,E,1,05,2.87,100000.0000,M,00.000,M,,*55
$GPGGA,055654.00,3525.78789904,N,05105.10480000,E,1,05,2.87,100000.0000,M,00.000,M,,*5B
$GPGGA,055654.10,3525.78789904,N,05105.10480000,E,1,05,2.87,100000.0000,M,00.000,M,,*5A
$GPGGA,055654.20,3525.78789904,N,05105.10480000,E,1,05,2.87,100000.0000,M,00.000,M,,*59
$GPGGA,055654.30,3525.78789904,N,05105.10480000,E,1,05,2.87,100000.0000,M,00.000,M,,*58
$GPGGA,055654.40,3525.78789904,N,05105.10480000,E,1,05,2.87,100000.0000,M,00.000,M,,*5F
$GPGGA,055654.50,3525.78789904,N,05105.10480000,E,1,05,2.87,100000.0000,M,00.000,M,,*5E
$GPGGA,055654.60,3525.78789904,N,05105.10480000,E,1,05,2.87,100000.0000,M,00.000,M,,*5D
$GPGGA,055654.70,3525.78789904,N,05105.10480000,E,1,05,2.87,100000.0000,M,00.000,M,,*5C
$GPGGA,055654.80,3525.78789904,N,05105.10480000,E,1,05,2.87,100000.0000,M,00.000,M,,*53
$GPGGA,055654.90,3525.78789904,N,05105.10480000,E,1,05,2.87,100000.0000,M,00.000,M,,*52
$GPGGA,055655.00,3525.78789904,N,05105.10480000,E,1,05,2.87,100000.0000,M,00.000,M,,*5A
$GPGGA,055655.10,3525.78789904,N,05105.10480000,E,1,05,2.87,100000.0000,M,00.000,M,,*5B
$GPGGA,055655.20,3525.78789904,N,05105.10480000,E,1,05,2.87,100000.0000,M,00.000,M,,*58
$GPGGA,055655.30,3525.78789904,N,05105.10480000,E,1,05,2.87,100000.0000,M,00.000,M,,*59
$GPGGA,055655.40,3525.78789904,N,05105.10480000,E,1,05,2.87,100000.0000,M,00.000,M,,*5E
$GPGGA,055655.50,3525.78789904,N,05105.10480000,E,1,05,2.87,100000.0000,M,00.000,M,,*5F
$GPGGA,055655.60,3525.78789904,N,05105.10480000,E,1,05,2.87,100000.0000,M,00.000,M,,*5C
$GPGGA,055655.70,3525.78789904,N,05105.10480000,E,1,05,2.87,100000.0000,M,00.000,M,,*5D
$GPGGA,055655.80,3525.78789904,N,05105.10480000,E,1,05,2.87,100000.0000,M,00.000,M,,*52
$GPGGA,055655.90,3525.78789904,N,05105.10480000,E,1,05,2.87,100000.0000,M,00.000,M,,*53
$GPGGA,055656.00,3525.78789904,N,05105.10480000,E,1,05,2.87,100000.0000,M,00.000,M,,*59
$GPGGA,055656.10,3525.78789904,N,05105.10480000,E,1,05,2.87,100000.0000,M,00.000,M,,*58
$GPGGA,055656.20,3525.78789904,N,05105.10480000,E,1,05,2.87,100000.0000,M,00.000,M,,*5B
$GPGGA,055656.30,3525.78789904,N,05105.10480000,E,1,05,2.87,100000.0000,M,00.000,M,,*5A
$GPGGA,055656.40,3525.78789904,N,05105.10480000,E,1,05,2.87,100000.0000,M,00.000,M,,*5D
$GPGGA,055656.50,3525.78789904,N,05105.10480000,E,1,05,2.87,100000.0000,M,00.000,M,,*5C
$GPGGA,055656.60,3525.78789904,N,05105.10480000,E,1,05,2.87,100000.0000,M,00.000,M,,*5F
$GPGGA,055656.70,3525.78789904,N,05105.10480000,E,1,05,2.87,100000.0000,M,00.000,M,,*5E
$GPGGA,055656.80,3525.78789904,N,05105.10480000,E,1,05,2.87,100000.0000,M,00.000,M,,*51
$GPGGA,055656.90,3525.78789904,N,05105.10480000,E,1,05,2.87,100000.0000,M,00.000,M,,*50
$GPGGA,055657.00,3525.78789904,N,05105.10480000,E,1,05,2.87,100000.0000,M,00.000,M,,*58
$GPGGA,055657.10,3525.78789904,N,05105.10480000,E,1,05,2.87,100000.0000,M,00.000,M,,*59
$GPGGA,055657.20,3525.78789904,N,05105.10480000,E,1,05,2.87,100000.0000,M,00.000,M,,*5A
$GPGGA,055657.30,3525.78789904,N,05105.10480000,E,1,05,2.87,100000.0000,M,00.000,M,,*5B
$GPGGA,055657.40,3525.78789904,N,05105.10480000,E,1,05,2.87,100000.0000,M,00.000,M,,*5C
$GPGGA,055657.50,3525.78789904,N,05105.10480000,E,1,05,2.87,100000.0000,M,00.000,M,,*5D
$GPGGA,055657.60,3525.78789904,N,05105.10480000,E,1,05,2.87,100000.0000,M,00.000,M,,*5E
$GPGGA,055657.70,3525.78789904,N,05105.10480000,E,1,05,2.87,100000.0000,M,00.000,M,,*5F
$GPGGA,055657.80,3525.78789904,N,05105.10480000,E,1,05,2.87,100000.0000,M,00.000,M,,*50
$GPGGA,055657.90,3525.78789904,N,05105.10480000,E,1,05,2.87,100000.0000,M,00.000,M,,*51
$GPGGA,055658.00,3525.78789904,N,05105.10480000,E,1,05,2.87,100000.0000,M,00.000,M,,*57
$GPGGA,055658.10,3525.78789904,N,05105.10480000,E,1,05,2.87,100000.0000,M,00.000,M,,*56
$GPGGA,055658.20,3525.78789904,N,05105.10480000,E,1,05,2.87,100000.0000,M,00.000,M,,*55
$GPGGA,055658.30,3525.78789904,N,05105.10480000,E,1,05,2.87,100000.0000,M,00.000,M,,*54
$GPGGA,055658.40,3525.78789904,N,05105.10480000,E,1,05,2.87,100000.0000,M,00.000,M,,*53
$GPGGA,055658.50,3525.78789904,N,05105.10480000,E,1,05,2.87,100000.0000,M,00.000,M,,*52
$GPGGA,055658.60,3525.78789904,N,05105.10480000,E,1,05,2.87,100000.0000,M,00.000,M,,*51
$GPGGA,055658.70,3525.78789904,N,05105.10480000,E,1,05,2.87,100000.0000,M,00.000,M,,*50
$GPGGA,055658.80,3525.78789904,N,05105.10480000,E,1,05,2.87,100000.0000,M,00.000,M,,*5F
$GPGGA,055658.90,3525.78789904,N,05105.10480000,E,1,05,2.87,100000.0000,M,00.000,M,,*5E
$GPGGA,055659.00,3525.78789904,N,05105.10480000,E,1,05,2.87,100000.0000,M,00.000,M,,*56
$GPGGA,055659.10,3525.78789904,N,05105.10480000,E,1,05,2.87,100000.0000,M,00.000,M,,*57
$GPGGA,055659.20,3525.78789904,N,05105.10480000,E,1,05,2.87,100000.0000,M,00.000,M,,*54
$GPGGA,055659.30,3525.78789904,N,05105.10480000,E,1,05,2.87,100000.0000,M,00.000,M,,*55
$GPGGA,055659.40,3525.78789904,N,05105.10480000,E,1,05,2.87,100000.0000,M,00.000,M,,*52
$GPGGA,055659.50,3525.78789904,N,05105.10480000,E,1,05,2.87,100000.0000,M,00.000,M,,*53
$GPGGA,055659.60,3525.78789904,N,05105.10480000,E,1,05,2.87,100000.0000,M,00.000,M,,*50
$GPGGA,055659.70,3525.78789904,N,05105.10480000,E,1,05,2.87,100000.0000,M,00.000,M,,*51
$GPGGA,055659.80,3525.78789904,N,05105.10480000,E,1,05,2.87,100000.0000,M,00.000,M,,*5E
$GPGGA,055659.90,3525.78789904,N,05105.10480000,E,1,05,2.87,100000.0000,M,00.000,M,,*5F
$GPGGA,055700.00,3525.78789904,N,05105.10480000,E,1,05,2.87,100000.0000,M,00.000,M,,*5B
$GPGGA,055700.10,3525.78789904,N,05105.10480000,E,1,05,2.87,100000.0000,M,00.000,M,,*5A
$GPGGA,055700.20,3525.78789904,N,05105.10480000,E,1,05,2.87,100000.0000,M,00.000,M,,*59
$GPGGA,055700.30,3525.78789904,N,05105.10480000,E,1,05,2.87,100000.0000,M,00.000,M,,*58
$GPGGA,055700.40,3525.78789904,N,05105.10480000,E,1,05,2.87,100000.0000,M,00.000,M,,*5F
$GPGGA,055700.50,3525.78789904,N,05105.10480000,E,1,05,2.87,100000.0000,M,00.000,M,,*5E
$GPGGA,055700.60,3525.78789904,N,05105.10480000,E,1,05,2.87,100000.0000,M,00.000,M,,*5D
$GPGGA,055700.70,3525.78789904,N,05105.10480000,E,1,05,2.87,100000.0000,M,00.000,M,,*5C
$GPGGA,055700.80,3525.78789904,N,05105.10480000,E,1,05,2.87,100000.0000,M,00.000,M,,*53
$GPGGA,055700.90,3525.78789904,N,05105.10480000,E,1,05,2.87,100000.0000,M,00.000,M,,*52
$GPGGA,055701.00,3525.78789904,N,05105.10480000,E,1,05,2.87,100000.0000,M,00.000,M,,*5A
$GPGGA,055701.10,3525.78789904,N,05105.10480000,E,1,05,2.87,100000.0000,M,00.000,M,,*5B
$GPGGA,055701.20,3525.78789904,N,05105.10480000,E,1,05,2.87,100000.0000,M,00.000,M,,*58
$GPGGA,055701.30,3525.78789904,N,05105.10480000,E,1,05,2.87,100000.0000,M,00.000,M,,*59
$GPGGA,055701.40,3525.78789904,N,05105.10480000,E,1,05,2.87,100000.0000,M,00.000,M,,*5E
$GPGGA,055701.50,3525.78789904,N,05105.10480000,E,1,05,2.87,100000.0000,M,00.000,M,,*5F
$GPGGA,055701.60,3525.78789904,N,05105.10480000,E,1,05,2.87,100000.0000,M,00.000,M,,*5C
$GPGGA,055701.70,3525.78789904,N,05105.10480000,E,1,05,2.87,100000.0000,M,00.000,M,,*5D
$GPGGA,055701.80,3525.78789904,N,05105.10480000,E,1,05,2.87,100000.0000,M,00.000,M,,*52
$GPGGA,055701.90,3525.78789904,N,05105.10480000,E,1,05,2.87,100000.0000,M,00.000,M,,*53
$GPGGA,055702.00,3525.78789904,N,05105.10480000,E,1,05,2.87,100000.0000,M,00.000,M,,*59
$GPGGA,055702.10,3525.78789904,N,05105.10480000,E,1,05,2.87,100000.0000,M,00.000,M,,*58
$GPGGA,055702.20,3525.78789904,N,05105.10480000,E,1,05,2.87,100000.0000,M,00.000,M,,*5B
$GPGGA,055702.30,3525.78789904,N,05105.10480000,E,1,05,2.87,100000.0000,M,00.000,M,,*5A
$GPGGA,055702.40,3525.78789904,N,05105.10480000,E,1,05,2.87,100000.0000,M,00.000,M,,*5D
$GPGGA,055702.50,3525.78789904,N,05105.10480000,E,1,05,2.87,100000.0000,M,00.000,M,,*5C
$GPGGA,055702.60,3525.78789904,N,05105.10480000,E,1,05,2.87,100000.0000,M,00.000,M,,*5F
$GPGGA,055702.70,3525.78789904,N,05105.10480000,E,1,05,2.87,100000.0000,M,00.000,M,,*5E
$GPGGA,055702.80,3525.78789904,N,05105.10480000,E,1,05,2.87,100000.0000,M,00.000,M,,*51
$GPGGA,055702.90,3525.78789904,N,05105.10480000,E,1,05,2.87,100000.0000,M,00.000,M,,*50
$GPGGA,055703.00,3525.78789904,N,05105.10480000,E,1,05,2.87,100000.0000,M,00.000,M,,*58
$GPGGA,055703.10,3525.78789904,N,05105.10480000,E,1,05,2.87,100000.0000,M,00.000,M,,*59
$GPGGA,055703.20,3525.78789904,N,05105.10480000,E,1,05,2.87,100000.0000,M,00.000,M,,*5A
$GPGGA,055703.30,3525.78789904,N,05105.10480000,E,1,05,2.87,100000.0000,M,00.000,M,,*5B
$GPGGA,055703.40,3525.78789904,N,05105.10480000,E,1,05,2.87,100000.0000,M,00.000,M,,*5C
$GPGGA,055703.50,3525.78789904,N,05105.10480000,E,1,05,2.87,100000.0000,M,00.000,M,,*5D
$GPGGA,055703.60,3525.78789904,N,05105.10480000,E,1,05,2.87,100000.0000,M,00.000,M,,*5E
$GPGGA,055703.70,3525.78789904,N,05105.10480000,E,1,05,2.87,100000.0000,M,00.000,M,,*5F
$GPGGA,055703.80,3525.78789904,N,05105.10480000,E,1,05,2.87,100000.0000,M,00.000,M,,*50
$GPGGA,055703.90,3525.78789904,N,05105.10480000,E,1,05,2.87,100000.0000,M,00.000,M,,*51
$GPGGA,055704.00,3525.78789904,N,05105.10480000,E,1,05,2.87,100000.0000,M,00.000,M,,*5F
$GPGGA,055704.10,3525.78789904,N,05105.10480000,E,1,05,2.87,100000.0000,M,00.000,M,,*5E
$GPGGA,055704.20,3525.78789904,N,05105.10480000,E,1,05,2.87,100000.0000,M,00.000,M,,*5D
$GPGGA,055704.30,3525.78789904,N,05105.10480000,E,1,05,2.87,100000.0000,M,00.000,M,,*5C
$GPGGA,055704.40,3525.78789904,N,05105.10480000,E,1,05,2.87,100000.0000,M,00.000,M,,*5B
$GPGGA,055704.50,3525.78789904,N,05105.10480000,E,1,05,2.87,100000.0000,M,00.000,M,,*5A
$GPGGA,055704.60,3525.78789904,N,05105.10480000,E,1,05,2.87,100000.0000,M,00.000,M,,*59
$GPGGA,055704.70,3525.78789904,N,05105.10480000,E,1,05,2.87,100000.0000,M,00.000,M,,*58
$GPGGA,055704.80,3525.78789904,N,05105.10480000,E,1,05,2.87,100000.0000,M,00.000,M,,*57
$GPGGA,055704.90,3525.78789904,N,05105.10480000,E,1,05,2.87,100000.0000,M,00.000,M,,*56
$GPGGA,055705.00,3525.78789904,N,05105.10480000,E,1,05,2.87,100000.0000,M,00.000,M,,*5E
$GPGGA,055705.10,3525.78789904,N,05105.10480000,E,1,05,2.87,100000.0000,M,00.000,M,,*5F
$GPGGA,055705.20,3525.78789904,N,05105.10480000,E,1,05,2.87,100000.0000,M,00.000,M,,*5C
$GPGGA,055705.30,3525.78789904,N,05105.10480000,E,1,05,2.87,100000.0000,M,00.000,M,,*5D
$GPGGA,055705.40,3525.78789904,N,05105.10480000,E,1,05,2.87,100000.0000,M,00.000,M,,*5A
$GPGGA,055705.50,3525.78789904,N,05105.10480000,E,1,05,2.87,100000.0000,M,00.000,M,,*5B
$GPGGA,055705.60,3525.78789904,N,05105.10480000,E,1,05,2.87,100000.0000,M,00.000,M,,*58
$GPGGA,055705.70,3525.78789904,N,05105.10480000,E,1,05,2.87,100000.0000,M,00.000,M,,*59
$GPGGA,055705.80,3525.78789904,N,05105.10480000,E,1,05,2.87,100000.0000,M,00.000,M,,*56
$GPGGA,055705.90,3525.78789904,N,05105.10480000,E,1,05,2.87,100000.0000,M,00.000,M,,*57
$GPGGA,055706.00,3525.78789904,N,05105.10480000,E,1,05,2.87,100000.0000,M,00.000,M,,*5D
$GPGGA,055706.10,3525.78789904,N,05105.10480000,E,1,05,2.87,100000.0000,M,00.000,M,,*5C
$GPGGA,055706.20,3525.78789904,N,05105.10480000,E,1,05,2.87,100000.0000,M,00.000,M,,*5F
$GPGGA,055706.30,3525.78789904,N,05105.10480000,E,1,05,2.87,100000.0000,M,00.000,M,,*5E
$GPGGA,055706.40,3525.78789904,N,05105.10480000,E,1,05,2.87,100000.0000,M,00.000,M,,*59
$GPGGA,055706.50,3525.78789904,N,05105.10480000,E,1,05,2.87,100000.0000,M,00.000,M,,*58
$GPGGA,055706.60,3525.78789904,N,05105.10480000,E,1,05,2.87,100000.0000,M,00.000,M,,*5B
$GPGGA,055706.70,3525.78789904,N,05105.10480000,E,1,05,2.87,100000.0000,M,00.000,M,,*5A
$GPGGA,055706.80,3525.78789904,N,05105.10480000,E,1,05,2.87,100000.0000,M,00.000,M,,*55
$GPGGA,055706.90,3525.78789904,N,05105.10480000,E,1,05,2.87,100000.0000,M,00.000,M,,*54
$GPGGA,055707.00,3525.78789904,N,05105.10480000,E,1,05,2.87,100000.0000,M,00.000,M,,*5C
$GPGGA,055707.10,3525.78789904,N,05105.10480000,E,1,05,2.87,100000.0000,M,00.000,M,,*5D
$GPGGA,055707.20,3525.78789904,N,05105.10480000,E,1,05,2.87,100000.0000,M,00.000,M,,*5E
$GPGGA,055707.30,3525.78789904,N,05105.10480000,E,1,05,2.87,100000.0000,M,00.000,M,,*5F
$GPGGA,055707.40,3525.78789904,N,05105.10480000,E,1,05,2.87,100000.0000,M,00.000,M,,*58
$GPGGA,055707.50,3525.78789904,N,05105.10480000,E,1,05,2.87,100000.0000,M,00.000,M,,*59
$GPGGA,055707.60,3525.78789904,N,05105.10480000,E,1,05,2.87,100000.0000,M,00.000,M,,*5A
$GPGGA,055707.70,3525.78789904,N,05105.10480000,E,1,05,2.87,100000.0000,M,00.000,M,,*5B
$GPGGA,055707.80,3525.78789904,N,05105.10480000,E,1,05,2.87,100000.0000,M,00.000,M,,*54
$GPGGA,055707.90,3525.78789904,N,05105.10480000,E,1,05,2.87,100000.0000,M,00.000,M,,*55
$GPGGA,055708.00,3525.78789904,N,05105.10480000,E,1,05,2.87,100000.0000,M,00.000,M,,*53
$GPGGA,055708.10,3525.78789904,N,05105.10480000,E,1,05,2.87,100000.0000,M,00.000,M,,*52
$GPGGA,055708.20,3525.78789904,N,05105.10480000,E,1,05,2.87,100000.0000,M,00.000,M,,*51
$GPGGA,055708.30,3525.78789904,N,05105.10480000,E,1,05,2.87,100000.0000,M,00.000,M,,*50
$GPGGA,055708.40,3525.78789904,N,05105.10480000,E,1,05,2.87,100000.0000,M,00.000,M,,*57
$GPGGA,055708.50,3525.78789904,N,05105.10480000,E,1,05,2.87,100000.0000,M,00.000,M,,*56
$GPGGA,055708.60,3525.78789904,N,05105.10480000,E,1,05,2.87,100000.0000,M,00.000,M,,*55
$GPGGA,055708.70,3525.78789904,N,05105.10480000,E,1,05,2.87,100000.0000,M,00.000,M,,*54
$GPGGA,055708.80,3525.78789904,N,05105.10480000,E,1,05,2.87,100000.0000,M,00.000,M,,*5B
$GPGGA,055708.90,3525.78789904,N,05105.10480000,E,1,05,2.87,100000.0000,M,00.000,M,,*5A
$GPGGA,055709.00,3525.78789904,N,05105.10480000,E,1,05,2.87,100000.0000,M,00.000,M,,*52
$GPGGA,055709.10,3525.78789904,N,05105.10480000,E,1,05,2.87,100000.0000,M,00.000,M,,*53
$GPGGA,055709.20,3525.78789904,N,05105.10480000,E,1,05,2.87,100000.0000,M,00.000,M,,*50
$GPGGA,055709.30,3525.78789904,N,05105.10480000,E,1,05,2.87,100000.0000,M,00.000,M,,*51
$GPGGA,055709.40,3525.78789904,N,05105.10480000,E,1,05,2.87,100000.0000,M,00.000,M,,*56
$GPGGA,055709.50,3525.78789904,N,05105.10480000,E,1,05,2.87,100000.0000,M,00.000,M,,*57
$GPGGA,055709.60,3525.78789904,N,05105.10480000,E,1,05,2.87,100000.0000,M,00.000,M,,*54
$GPGGA,055709.70,3525.78789904,N,05105.10480000,E,1,05,2.87,100000.0000,M,00.000,M,,*55
$GPGGA,055709.80,3525.78789904,N,05105.10480000,E,1,05,2.87,100000.0000,M,00.000,M,,*5A
$GPGGA,055709.90,3525.78789904,N,05105.10480000,E,1,05,2.87,100000.0000,M,00.000,M,,*5B
$GPGGA,055710.00,3525.78789904,N,05105.10480000,E,1,05,2.87,100000.0000,M,00.000,M,,*5A
$GPGGA,055710.10,3525.78789904,N,05105.10480000,E,1,05,2.87,100000.0000,M,00.000,M,,*5B
$GPGGA,055710.20,3525.78789904,N,05105.10480000,E,1,05,2.87,100000.0000,M,00.000,M,,*58
$GPGGA,055710.30,3525.78789904,N,05105.10480000,E,1,05,2.87,100000.0000,M,00.000,M,,*59
$GPGGA,055710.40,3525.78789904,N,05105.10480000,E,1,05,2.87,100000.0000,M,00.000,M,,*5E
$GPGGA,055710.50,3525.78789904,N,05105.10480000,E,1,05,2.87,100000.0000,M,00.000,M,,*5F
$GPGGA,055710.60,3525.78789904,N,05105.10480000,E,1,05,2.87,100000.0000,M,00.000,M,,*5C
$GPGGA,055710.70,3525.78789904,N,05105.10480000,E,1,05,2.87,100000.0000,M,00.000,M,,*5D
$GPGGA,055710.80,3525.78789904,N,05105.10480000,E,1,05,2.87,100000.0000,M,00.000,M,,*52
$GPGGA,055710.90,3525.78789904,N,05105.10480000,E,1,05,2.87,100000.0000,M,00.000,M,,*53
$GPGGA,055711.00,3525.78789904,N,05105.10480000,E,1,05,2.87,100000.0000,M,00.000,M,,*5B
$GPGGA,055711.10,3525.78789904,N,05105.10480000,E,1,05,2.87,100000.0000,M,00.000,M,,*5A
$GPGGA,055711.20,3525.78789904,N,05105.10480000,E,1,05,2.87,100000.0000,M,00.000,M,,*59
$GPGGA,055711.30,3525.78789904,N,05105.10480000,E,1,05,2.87,100000.0000,M,00.000,M,,*58
$GPGGA,055711.40,3525.78789904,N,05105.10480000,E,1,05,2.87,100000.0000,M,00.000,M,,*5F
$GPGGA,055711.50,3525.78789904,N,05105.10480000,E,1,05,2.87,100000.0000,M,00.000,M,,*5E
$GPGGA,055711.60,3525.78789904,N,05105.10480000,E,1,05,2.87,100000.0000,M,00.000,M,,*5D
$GPGGA,055711.70,3525.78789904,N,05105.10480000,E,1,05,2.87,100000.0000,M,00.000,M,,*5C
$GPGGA,055711.80,3525.78789904,N,05105.10480000,E,1,05,2.87,100000.0000,M,00.000,M,,*53
$GPGGA,055711.90,3525.78789904,N,05105.10480000,E,1,05,2.87,100000.0000,M,00.000,M,,*52
$GPGGA,055712.00,3525.78789904,N,05105.10480000,E,1,05,2.87,100000.0000,M,00.000,M,,*58
$GPGGA,055712.10,3525.78789904,N,05105.10480000,E,1,05,2.87,100000.0000,M,00.000,M,,*59
$GPGGA,055712.20,3525.78789904,N,05105.10480000,E,1,05,2.87,100000.0000,M,00.000,M,,*5A
$GPGGA,055712.30,3525.78789904,N,05105.10480000,E,1,05,2.87,100000.0000,M,00.000,M,,*5B
$GPGGA,055712.40,3525.78789904,N,05105.10480000,E,1,05,2.87,100000.0000,M,00.000,M,,*5C
$GPGGA,055712.50,3525.78789904,N,05105.10480000,E,1,05,2.87,100000.0000,M,00.000,M,,*5D
$GPGGA,055712.60,3525.78789904,N,05105.10480000,E,1,05,2.87,100000.0000,M,00.000,M,,*5E
$GPGGA,055712.70,3525.78789904,N,05105.10480000,E,1,05,2.87,100000.0000,M,00.000,M,,*5F
$GPGGA,055712.80,3525.78789904,N,05105.10480000,E,1,05,2.87,100000.0000,M,00.000,M,,*50
$GPGGA,055712.90,3525.78789904,N,05105.10480000,E,1,05,2.87,100000.0000,M,00.000,M,,*51
$GPGGA,055713.00,3525.78789904,N,05105.10480000,E,1,05,2.87,100000.0000,M,00.000,M,,*59
$GPGGA,055713.10,3525.78789904,N,05105.10480000,E,1,05,2.87,100000.0000,M,00.000,M,,*58
$GPGGA,055713.20,3525.78789904,N,05105.10480000,E,1,05,2.87,100000.0000,M,00.000,M,,*5B
$GPGGA,055713.30,3525.78789904,N,05105.10480000,E,1,05,2.87,100000.0000,M,00.000,M,,*5A
$GPGGA,055713.40,3525.78789904,N,05105.10480000,E,1,05,2.87,100000.0000,M,00.000,M,,*5D
$GPGGA,055713.50,3525.78789904,N,05105.10480000,E,1,05,2.87,100000.0000,M,00.000,M,,*5C
$GPGGA,055713.60,3525.78789904,N,05105.10480000,E,1,05,2.87,100000.0000,M,00.000,M,,*5F
$GPGGA,055713.70,3525.78789904,N,05105.10480000,E,1,05,2.87,100000.0000,M,00.000,M,,*5E
$GPGGA,055713.80,3525.78789904,N,05105.10480000,E,1,05,2.87,100000.0000,M,00.000,M,,*51
$GPGGA,055713.90,3525.78789904,N,05105.10480000,E,1,05,2.87,100000.0000,M,00.000,M,,*50
$GPGGA,055714.00,3525.78789904,N,05105.10480000,E,1,05,2.87,100000.0000,M,00.000,M,,*5E
$GPGGA,055714.10,3525.78789904,N,05105.10480000,E,1,05,2.87,100000.0000,M,00.000,M,,*5F
$GPGGA,055714.20,3525.78789904,N,05105.10480000,E,1,05,2.87,100000.0000,M,00.000,M,,*5C
$GPGGA,055714.30,3525.78789904,N,05105.10480000,E,1,05,2.87,100000.0000,M,00.000,M,,*5D
$GPGGA,055714.40,3525.78789904,N,05105.10480000,E,1,05,2.87,100000.0000,M,00.000,M,,*5A
$GPGGA,055714.50,3525.78789904,N,05105.10480000,E,1,05,2.87,100000.0000,M,00.000,M,,*5B
$GPGGA,055714.60,3525.78789904,N,05105.10480000,E,1,05,2.87,100000.0000,M,00.000,M,,*58
$GPGGA,055714.70,3525.78789904,N,05105.10480000,E,1,05,2.87,100000.0000,M,00.000,M,,*59
$GPGGA,055714.80,3525.78789904,N,05105.10480000,E,1,05,2.87,100000.0000,M,00.000,M,,*56
$GPGGA,055714.90,3525.78789904,N,05105.10480000,E,1,05,2.87,100000.0000,M,00.000,M,,*57
$GPGGA,055715.00,3525.78789904,N,05105.10480000,E,1,05,2.87,100000.0000,M,00.000,M,,*5F
$GPGGA,055715.10,3525.78789904,N,05105.10480000,E,1,05,2.87,100000.0000,M,00.000,M,,*5E
$GPGGA,055715.20,3525.78789904,N,05105.10480000,E,1,05,2.87,100000.0000,M,00.000,M,,*5D
$GPGGA,055715.30,3525.78789904,N,05105.10480000,E,1,05,2.87,100000.0000,M,00.000,M,,*5C
$GPGGA,055715.40,3525.78789904,N,05105.10480000,E,1,05,2.87,100000.0000,M,00.000,M,,*5B
$GPGGA,055715.50,3525.78789904,N,05105.10480000,E,1,05,2.87,100000.0000,M,00.000,M,,*5A
$GPGGA,055715.60,3525.78789904,N,05105.10480000,E,1,05,2.87,100000.0000,M,00.000,M,,*59
$GPGGA,055715.70,3525.78789904,N,05105.10480000,E,1,05,2.87,100000.0000,M,00.000,M,,*58
$GPGGA,055715.80,3525.78789904,N,05105.10480000,E,1,05,2.87,100000.0000,M,00.000,M,,*57
$GPGGA,055715.90,3525.78789904,N,05105.10480000,E,1,05,2.87,100000.0000,M,00.000,M,,*56
$GPGGA,055716.00,3525.78789904,N,05105.10480000,E,1,05,2.87,100000.0000,M,00.000,M,,*5C
$GPGGA,055716.10,3525.78789904,N,05105.10480000,E,1,05,2.87,100000.0000,M,00.000,M,,*5D
$GPGGA,055716.20,3525.78789904,N,05105.10480000,E,1,05,2.87,100000.0000,M,00.000,M,,*5E
$GPGGA,055716.30,3525.78789904,N,05105.10480000,E,1,05,2.87,100000.0000,M,00.000,M,,*5F
$GPGGA,055716.40,3525.78789904,N,05105.10480000,E,1,05,2.87,100000.0000,M,00.000,M,,*58
$GPGGA,055716.50,3525.78789904,N,05105.10480000,E,1,05,2.87,100000.0000,M,00.000,M,,*59
$GPGGA,055716.60,3525.78789904,N,05105.10480000,E,1,05,2.87,100000.0000,M,00.000,M,,*5A
$GPGGA,055716.70,3525.78789904,N,05105.10480000,E,1,05,2.87,100000.0000,M,00.000,M,,*5B
$GPGGA,055716.80,3525.78789904,N,05105.10480000,E,1,05,2.87,100000.0000,M,00.000,M,,*54
$GPGGA,055716.90,3525.78789904,N,05105.10480000,E,1,05,2.87,100000.0000,M,00.000,M,,*55
$GPGGA,055717.00,3525.78789904,N,05105.10480000,E,1,05,2.87,100000.0000,M,00.000,M,,*5D
$GPGGA,055717.10,3525.78789904,N,05105.10480000,E,1,05,2.87,100000.0000,M,00.000,M,,*5C
$GPGGA,055717.20,3525.78789904,N,05105.10480000,E,1,05,2.87,100000.0000,M,00.000,M,,*5F
$GPGGA,055717.30,3525.78789904,N,05105.10480000,E,1,05,2.87,100000.0000,M,00.000,M,,*5E
$GPGGA,055717.40,3525.78789904,N,05105.10480000,E,1,05,2.87,100000.0000,M,00.000,M,,*59
$GPGGA,055717.50,3525.78789904,N,05105.10480000,E,1,05,2.87,100000.0000,M,00.000,M,,*58
$GPGGA,055717.60,3525.78789904,N,05105.10480000,E,1,05,2.87,100000.0000,M,00.000,M,,*5B
$GPGGA,055717.70,3525.78789904,N,05105.10480000,E,1,05,2.87,100000.0000,M,00.000,M,,*5A
$GPGGA,055717.80,3525.78789904,N,05105.10480000,E,1,05,2.87,100000.0000,M,00.000,M,,*55
$GPGGA,055717.90,3525.78789904,N,05105.10480000,E,1,05,2.87,100000.0000,M,00.000,M,,*54
$GPGGA,055718.00,3525.78789904,N,05105.10480000,E,1,05,2.87,100000.0000,M,00.000,M,,*52
$GPGGA,055718.10,3525.78789904,N,05105.10480000,E,1,05,2.87,100000.0000,M,00.000,M,,*53
$GPGGA,055718.20,3525.78789904,N,05105.10480000,E,1,05,2.87,100000.0000,M,00.000,M,,*50
$GPGGA,055718.30,3525.78789904,N,05105.10480000,E,1,05,2.87,100000.0000,M,00.000,M,,*51
$GPGGA,055718.40,3525.78789904,N,05105.10480000,E,1,05,2.87,100000.0000,M,00.000,M,,*56
$GPGGA,055718.50,3525.78789904,N,05105.10480000,E,1,05,2.87,100000.0000,M,00.000,M,,*57
$GPGGA,055718.60,3525.78789904,N,05105.10480000,E,1,05,2.87,100000.0000,M,00.000,M,,*54
$GPGGA,055718.70,3525.78789904,N,05105.10480000,E,1,05,2.87,100000.0000,M,00.000,M,,*55
$GPGGA,055718.80,3525.78789904,N,05105.10480000,E,1,05,2.87,100000.0000,M,00.000,M,,*5A
$GPGGA,055718.90,3525.78789904,N,05105.10480000,E,1,05,2.87,100000.0000,M,00.000,M,,*5B
$GPGGA,055719.00,3525.78789904,N,05105.10480000,E,1,05,2.87,100000.0000,M,00.000,M,,*53
$GPGGA,055719.10,3525.78789904,N,05105.10480000,E,1,05,2.87,100000.0000,M,00.000,M,,*52
$GPGGA,055719.20,3525.78789904,N,05105.10480000,E,1,05,2.87,100000.0000,M,00.000,M,,*51
$GPGGA,055719.30,3525.78789904,N,05105.10480000,E,1,05,2.87,100000.0000,M,00.000,M,,*50
$GPGGA,055719.40,3525.78789904,N,05105.10480000,E,1,05,2.87,100000.0000,M,00.000,M,,*57
$GPGGA,055719.50,3525.78789904,N,05105.10480000,E,1,05,2.87,100000.0000,M,00.000,M,,*56
$GPGGA,055719.60,3525.78789904,N,05105.10480000,E,1,05,2.87,100000.0000,M,00.000,M,,*55
$GPGGA,055719.70,3525.78789904,N,05105.10480000,E,1,05,2.87,100000.0000,M,00.000,M,,*54
$GPGGA,055719.80,3525.78789904,N,05105.10480000,E,1,05,2.87,100000.0000,M,00.000,M,,*5B
$GPGGA,055719.90,3525.78789904,N,05105.10480000,E,1,05,2.87,100000.0000,M,00.000,M,,*5A
$GPGGA,055720.00,3525.78789904,N,05105.10480000,E,1,05,2.87,100000.0000,M,00.000,M,,*59
$GPGGA,055720.10,3525.78789904,N,05105.10480000,E,1,05,2.87,100000.0000,M,00.000,M,,*58
$GPGGA,055720.20,3525.78789904,N,05105.10480000,E,1,05,2.87,100000.0000,M,00.000,M,,*5B
$GPGGA,055720.30,3525.78789904,N,05105.10480000,E,1,05,2.87,100000.0000,M,00.000,M,,*5A
$GPGGA,055720.40,3525.78789904,N,05105.10480000,E,1,05,2.87,100000.0000,M,00.000,M,,*5D
$GPGGA,055720.50,3525.78789904,N,05105.10480000,E,1,05,2.87,100000.0000,M,00.000,M,,*5C
$GPGGA,055720.60,3525.78789904,N,05105.10480000,E,1,05,2.87,100000.0000,M,00.000,M,,*5F
$GPGGA,055720.70,3525.78789904,N,05105.10480000,E,1,05,2.87,100000.0000,M,00.000,M,,*5E
$GPGGA,055720.80,3525.78789904,N,05105.10480000,E,1,05,2.87,100000.0000,M,00.000,M,,*51
$GPGGA,055720.90,3525.78789904,N,05105.10480000,E,1,05,2.87,100000.0000,M,00.000,M,,*50
$GPGGA,055721.00,3525.78789904,N,05105.10480000,E,1,05,2.87,100000.0000,M,00.000,M,,*58
$GPGGA,055721.10,3525.78789904,N,05105.10480000,E,1,05,2.87,100000.0000,M,00.000,M,,*59
$GPGGA,055721.20,3525.78789904,N,05105.10480000,E,1,05,2.87,100000.0000,M,00.000,M,,*5A
$GPGGA,055721.30,3525.78789904,N,05105.10480000,E,1,05,2.87,100000.0000,M,00.000,M,,*5B
$GPGGA,055721.40,3525.78789904,N,05105.10480000,E,1,05,2.87,100000.0000,M,00.000,M,,*5C
$GPGGA,055721.50,3525.78789904,N,05105.10480000,E,1,05,2.87,100000.0000,M,00.000,M,,*5D
$GPGGA,055721.60,3525.78789904,N,05105.10480000,E,1,05,2.87,100000.0000,M,00.000,M,,*5E
$GPGGA,055721.70,3525.78789904,N,05105.10480000,E,1,05,2.87,100000.0000,M,00.000,M,,*5F
$GPGGA,055721.80,3525.78789904,N,05105.10480000,E,1,05,2.87,100000.0000,M,00.000,M,,*50
$GPGGA,055721.90,3525.78789904,N,05105.10480000,E,1,05,2.87,100000.0000,M,00.000,M,,*51
$GPGGA,055722.00,3525.78789904,N,05105.10480000,E,1,05,2.87,100000.0000,M,00.000,M,,*5B
$GPGGA,055722.10,3525.78789904,N,05105.10480000,E,1,05,2.87,100000.0000,M,00.000,M,,*5A
$GPGGA,055722.20,3525.78789904,N,05105.10480000,E,1,05,2.87,100000.0000,M,00.000,M,,*59
$GPGGA,055722.30,3525.78789904,N,05105.10480000,E,1,05,2.87,100000.0000,M,00.000,M,,*58
$GPGGA,055722.40,3525.78789904,N,05105.10480000,E,1,05,2.87,100000.0000,M,00.000,M,,*5F
$GPGGA,055722.50,3525.78789904,N,05105.10480000,E,1,05,2.87,100000.0000,M,00.000,M,,*5E
$GPGGA,055722.60,3525.78789904,N,05105.10480000,E,1,05,2.87,100000.0000,M,00.000,M,,*5D
$GPGGA,055722.70,3525.78789904,N,05105.10480000,E,1,05,2.87,100000.0000,M,00.000,M,,*5C
$GPGGA,055722.80,3525.78789904,N,05105.10480000,E,1,05,2.87,100000.0000,M,00.000,M,,*53
$GPGGA,055722.90,3525.78789904,N,05105.10480000,E,1,05,2.87,100000.0000,M,00.000,M,,*52
$GPGGA,055723.00,3525.78789904,N,05105.10480000,E,1,05,2.87,100000.0000,M,00.000,M,,*5A
$GPGGA,055723.10,3525.78789904,N,05105.10480000,E,1,05,2.87,100000.0000,M,00.000,M,,*5B
$GPGGA,055723.20,3525.78789904,N,05105.10480000,E,1,05,2.87,100000.0000,M,00.000,M,,*58
$GPGGA,055723.30,3525.78789904,N,05105.10480000,E,1,05,2.87,100000.0000,M,00.000,M,,*59
$GPGGA,055723.40,3525.78789904,N,05105.10480000,E,1,05,2.87,100000.0000,M,00.000,M,,*5E
$GPGGA,055723.50,3525.78789904,N,05105.10480000,E,1,05,2.87,100000.0000,M,00.000,M,,*5F
$GPGGA,055723.60,3525.78789904,N,05105.10480000,E,1,05,2.87,100000.0000,M,00.000,M,,*5C
$GPGGA,055723.70,3525.78789904,N,05105.10480000,E,1,05,2.87,100000.0000,M,00.000,M,,*5D
$GPGGA,055723.80,3525.78789904,N,05105.10480000,E,1,05,2.87,100000.0000,M,00.000,M,,*52
$GPGGA,055723.90,3525.78789904,N,05105.10480000,E,1,05,2.87,100000.0000,M,00.000,M,,*53
$GPGGA,055724.00,3525.78789904,N,05105.10480000,E,1,05,2.87,100000.0000,M,00.000,M,,*5D
$GPGGA,055724.10,3525.78789904,N,05105.10480000,E,1,05,2.87,100000.0000,M,00.000,M,,*5C
$GPGGA,055724.20,3525.78789904,N,05105.10480000,E,1,05,2.87,100000.0000,M,00.000,M,,*5F
$GPGGA,055724.30,3525.78789904,N,05105.10480000,E,1,05,2.87,100000.0000,M,00.000,M,,*5E
$GPGGA,055724.40,3525.78789904,N,05105.10480000,E,1,05,2.87,100000.0000,M,00.000,M,,*59
$GPGGA,055724.50,3525.78789904,N,05105.10480000,E,1,05,2.87,100000.0000,M,00.000,M,,*58
$GPGGA,055724.60,3525.78789904,N,05105.10480000,E,1,05,2.87,100000.0000,M,00.000,M,,*5B
$GPGGA,055724.70,3525.78789904,N,05105.10480000,E,1,05,2.87,100000.0000,M,00.000,M,,*5A
$GPGGA,055724.80,3525.78789904,N,05105.10480000,E,1,05,2.87,100000.0000,M,00.000,M,,*55
$GPGGA,055724.90,3525.78789904,N,05105.10480000,E,1,05,2.87,100000.0000,M,00.000,M,,*54
$GPGGA,055725.00,3525.78789904,N,05105.10480000,E,1,05,2.87,100000.0000,M,00.000,M,,*5C
$GPGGA,055725.10,3525.78789904,N,05105.10480000,E,1,05,2.87,100000.0000,M,00.000,M,,*5D
$GPGGA,055725.20,3525.78789904,N,05105.10480000,E,1,05,2.87,100000.0000,M,00.000,M,,*5E
$GPGGA,055725.30,3525.78789904,N,05105.10480000,E,1,05,2.87,100000.0000,M,00.000,M,,*5F
$GPGGA,055725.40,3525.78789904,N,05105.10480000,E,1,05,2.87,100000.0000,M,00.000,M,,*58
$GPGGA,055725.50,3525.78789904,N,05105.10480000,E,1,05,2.87,100000.0000,M,00.000,M,,*59
$GPGGA,055725.60,3525.78789904,N,05105.10480000,E,1,05,2.87,100000.0000,M,00.000,M,,*5A
$GPGGA,055725.70,3525.78789904,N,05105.10480000,E,1,05,2.87,100000.0000,M,00.000,M,,*5B
$GPGGA,055725.80,3525.78789904,N,05105.10480000,E,1,05,2.87,100000.0000,M,00.000,M,,*54
$GPGGA,055725.90,3525.78789904,N,05105.10480000,E,1,05,2.87,100000.0000,M,00.000,M,,*55
$GPGGA,055726.00,3525.78789904,N,05105.10480000,E,1,05,2.87,100000.0000,M,00.000,M,,*5F
$GPGGA,055726.10,3525.78789904,N,05105.10480000,E,1,05,2.87,100000.0000,M,00.000,M,,*5E
$GPGGA,055726.20,3525.78789904,N,05105.10480000,E,1,05,2.87,100000.0000,M,00.000,M,,*5D
$GPGGA,055726.30,3525.78789904,N,05105.10480000,E,1,05,2.87,100000.0000,M,00.000,M,,*5C
$GPGGA,055726.40,3525.78789904,N,05105.10480000,E,1,05,2.87,100000.0000,M,00.000,M,,*5B
$GPGGA,055726.50,3525.78789904,N,05105.10480000,E,1,05,2.87,100000.0000,M,00.000,M,,*5A
$GPGGA,055726.60,3525.78789904,N,05105.10480000,E,1,05,2.87,100000.0000,M,00.000,M,,*59
$GPGGA,055726.70,3525.78789904,N,05105.10480000,E,1,05,2.87,100000.0000,M,00.000,M,,*58
$GPGGA,055726.80,3525.78789904,N,05105.10480000,E,1,05,2.87,100000.0000,M,00.000,M,,*57
$GPGGA,055726.90,3525.78789904,N,05105.10480000,E,1,05,2.87,100000.0000,M,00.000,M,,*56
$GPGGA,055727.00,3525.78789904,N,05105.10480000,E,1,05,2.87,100000.0000,M,00.000,M,,*5E
$GPGGA,055727.10,3525.78789904,N,05105.10480000,E,1,05,2.87,100000.0000,M,00.000,M,,*5F
$GPGGA,055727.20,3525.78789904,N,05105.10480000,E,1,05,2.87,100000.0000,M,00.000,M,,*5C
$GPGGA,055727.30,3525.78789904,N,05105.10480000,E,1,05,2.87,100000.0000,M,00.000,M,,*5D
$GPGGA,055727.40,3525.78789904,N,05105.10480000,E,1,05,2.87,100000.0000,M,00.000,M,,*5A
$GPGGA,055727.50,3525.78789904,N,05105.10480000,E,1,05,2.87,100000.0000,M,00.000,M,,*5B
$GPGGA,055727.60,3525.78789904,N,05105.10480000,E,1,05,2.87,100000.0000,M,00.000,M,,*58
$GPGGA,055727.70,3525.78789904,N,05105.10480000,E,1,05,2.87,100000.0000,M,00.000,M,,*59
$GPGGA,055727.80,3525.78789904,N,05105.10480000,E,1,05,2.87,100000.0000,M,00.000,M,,*56
$GPGGA,055727.90,3525.78789904,N,05105.10480000,E,1,05,2.87,100000.0000,M,00.000,M,,*57
$GPGGA,055728.00,3525.78789904,N,05105.10480000,E,1,05,2.87,100000.0000,M,00.000,M,,*51
$GPGGA,055728.10,3525.78789904,N,05105.10480000,E,1,05,2.87,100000.0000,M,00.000,M,,*50
$GPGGA,055728.20,3525.78789904,N,05105.10480000,E,1,05,2.87,100000.0000,M,00.000,M,,*53
$GPGGA,055728.30,3525.78789904,N,05105.10480000,E,1,05,2.87,100000.0000,M,00.000,M,,*52
$GPGGA,055728.40,3525.78789904,N,05105.10480000,E,1,05,2.87,100000.0000,M,00.000,M,,*55
$GPGGA,055728.50,3525.78789904,N,05105.10480000,E,1,05,2.87,100000.0000,M,00.000,M,,*54
$GPGGA,055728.60,3525.78789904,N,05105.10480000,E,1,05,2.87,100000.0000,M,00.000,M,,*57
$GPGGA,055728.70,3525.78789904,N,05105.10480000,E,1,05,2.87,100000.0000,M,00.000,M,,*56
$GPGGA,055728.80,3525.78789904,N,05105.10480000,E,1,05,2.87,100000.0000,M,00.000,M,,*59
$GPGGA,055728.90,3525.78789904,N,05105.10480000,E,1,05,2.87,100000.0000,M,00.000,M,,*58
$GPGGA,055729.00,3525.78789904,N,05105.10480000,E,1,05,2.87,100000.0000,M,00.000,M,,*50
$GPGGA,055729.10,3525.78789904,N,05105.10480000,E,1,05,2.87,100000.0000,M,00.000,M,,*51
$GPGGA,055729.20,3525.78789904,N,05105.10480000,E,1,05,2.87,100000.0000,M,00.000,M,,*52
$GPGGA,055729.30,3525.78789904,N,05105.10480000,E,1,05,2.87,100000.0000,M,00.000,M,,*53
$GPGGA,055729.40,3525.78789904,N,05105.10480000,E,1,05,2.87,100000.0000,M,00.000,M,,*54
$GPGGA,055729.50,3525.78789904,N,05105.10480000,E,1,05,2.87,100000.0000,M,00.000,M,,*55
$GPGGA,055729.60,3525.78789904,N,05105.10480000,E,1,05,2.87,100000.0000,M,00.000,M,,*56
$GPGGA,055729.70,3525.78789904,N,05105.10480000,E,1,05,2.87,100000.0000,M,00.000,M,,*57
$GPGGA,055729.80,3525.78789904,N,05105.10480000,E,1,05,2.87,100000.0000,M,00.000,M,,*58
$GPGGA,055729.90,3525.78789904,N,05105.10480000,E,1,05,2.87,100000.0000,M,00.000,M,,*59
$GPGGA,055730.00,3525.78789904,N,05105.10480000,E,1,05,2.87,100000.0000,M,00.000,M,,*58
$GPGGA,055730.10,3525.78789904,N,05105.10480000,E,1,05,2.87,100000.0000,M,00.000,M,,*59
$GPGGA,055730.20,3525.78789904,N,05105.10480000,E,1,05,2.87,100000.0000,M,00.000,M,,*5A
$GPGGA,055730.30,3525.78789904,N,05105.10480000,E,1,05,2.87,100000.0000,M,00.000,M,,*5B
$GPGGA,055730.40,3525.78789904,N,05105.10480000,E,1,05,2.87,100000.0000,M,00.000,M,,*5C
$GPGGA,055730.50,3525.78789904,N,05105.10480000,E,1,05,2.87,100000.0000,M,00.000,M,,*5D
$GPGGA,055730.60,3525.78789904,N,05105.10480000,E,1,05,2.87,100000.0000,M,00.000,M,,*5E
$GPGGA,055730.70,3525.78789904,N,05105.10480000,E,1,05,2.87,100000.0000,M,00.000,M,,*5F
$GPGGA,055730.80,3525.78789904,N,05105.10480000,E,1,05,2.87,100000.0000,M,00.000,M,,*50
$GPGGA,055730.90,3525.78789904,N,05105.10480000,E,1,05,2.87,100000.0000,M,00.000,M,,*51
$GPGGA,055731.00,3525.78789904,N,05105.10480000,E,1,05,2.87,100000.0000,M,00.000,M,,*59
$GPGGA,055731.10,3525.78789904,N,05105.10480000,E,1,05,2.87,100000.0000,M,00.000,M,,*58
$GPGGA,055731.20,3525.78789904,N,05105.10480000,E,1,05,2.87,100000.0000,M,00.000,M,,*5B
$GPGGA,055731.30,3525.78789904,N,05105.10480000,E,1,05,2.87,100000.0000,M,00.000,M,,*5A
$GPGGA,055731.40,3525.78789904,N,05105.10480000,E,1,05,2.87,100000.0000,M,00.000,M,,*5D
$GPGGA,055731.50,3525.78789904,N,05105.10480000,E,1,05,2.87,100000.0000,M,00.000,M,,*5C
$GPGGA,055731.60,3525.78789904,N,05105.10480000,E,1,05,2.87,100000.0000,M,00.000,M,,*5F
$GPGGA,055731.70,3525.78789904,N,05105.10480000,E,1,05,2.87,100000.0000,M,00.000,M,,*5E
$GPGGA,055731.80,3525.78789904,N,05105.10480000,E,1,05,2.87,100000.0000,M,00.000,M,,*51
$GPGGA,055731.90,3525.78789904,N,05105.10480000,E,1,05,2.87,100000.0000,M,00.000,M,,*50
$GPGGA,055732.00,3525.78789904,N,05105.10480000,E,1,05,2.87,100000.0000,M,00.000,M,,*5A
$GPGGA,055732.10,3525.78789904,N,05105.10480000,E,1,05,2.87,100000.0000,M,00.000,M,,*5B
$GPGGA,055732.20,3525.78789904,N,05105.10480000,E,1,05,2.87,100000.0000,M,00.000,M,,*58
$GPGGA,055732.30,3525.78789904,N,05105.10480000,E,1,05,2.87,100000.0000,M,00.000,M,,*59
$GPGGA,055732.40,3525.78789904,N,05105.10480000,E,1,05,2.87,100000.0000,M,00.000,M,,*5E
$GPGGA,055732.50,3525.78789904,N,05105.10480000,E,1,05,2.87,100000.0000,M,00.000,M,,*5F
$GPGGA,055732.60,3525.78789904,N,05105.10480000,E,1,05,2.87,100000.0000,M,00.000,M,,*5C
$GPGGA,055732.70,3525.78789904,N,05105.10480000,E,1,05,2.87,100000.0000,M,00.000,M,,*5D
$GPGGA,055732.80,3525.78789904,N,05105.10480000,E,1,05,2.87,100000.0000,M,00.000,M,,*52
$GPGGA,055732.90,3525.78789904,N,05105.10480000,E,1,05,2.87,100000.0000,M,00.000,M,,*53
$GPGGA,055733.00,3525.78789904,N,05105.10480000,E,1,05,2.87,100000.0000,M,00.000,M,,*5B
$GPGGA,055733.10,3525.78789904,N,05105.10480000,E,1,05,2.87,100000.0000,M,00.000,M,,*5A
$GPGGA,055733.20,3525.78789904,N,05105.10480000,E,1,05,2.87,100000.0000,M,00.000,M,,*59
$GPGGA,055733.30,3525.78789904,N,05105.10480000,E,1,05,2.87,100000.0000,M,00.000,M,,*58
$GPGGA,055733.40,3525.78789904,N,05105.10480000,E,1,05,2.87,100000.0000,M,00.000,M,,*5F
$GPGGA,055733.50,3525.78789904,N,05105.10480000,E,1,05,2.87,100000.0000,M,00.000,M,,*5E
$GPGGA,055733.60,3525.78789904,N,05105.10480000,E,1,05,2.87,100000.0000,M,00.000,M,,*5D
$GPGGA,055733.70,3525.78789904,N,05105.10480000,E,1,05,2.87,100000.0000,M,00.000,M,,*5C
$GPGGA,055733.80,3525.78789904,N,05105.10480000,E,1,05,2.87,100000.0000,M,00.000,M,,*53
$GPGGA,055733.90,3525.78789904,N,05105.10480000,E,1,05,2.87,100000.0000,M,00.000,M,,*52
$GPGGA,055734.00,3525.78789904,N,05105.10480000,E,1,05,2.87,100000.0000,M,00.000,M,,*5C
$GPGGA,055734.10,3525.78789904,N,05105.10480000,E,1,05,2.87,100000.0000,M,00.000,M,,*5D
$GPGGA,055734.20,3525.78789904,N,05105.10480000,E,1,05,2.87,100000.0000,M,00.000,M,,*5E
$GPGGA,055734.30,3525.78789904,N,05105.10480000,E,1,05,2.87,100000.0000,M,00.000,M,,*5F
$GPGGA,055734.40,3525.78789904,N,05105.10480000,E,1,05,2.87,100000.0000,M,00.000,M,,*58
$GPGGA,055734.50,3525.78789904,N,05105.10480000,E,1,05,2.87,100000.0000,M,00.000,M,,*59
$GPGGA,055734.60,3525.78789904,N,05105.10480000,E,1,05,2.87,100000.0000,M,00.000,M,,*5A
$GPGGA,055734.70,3525.78789904,N,05105.10480000,E,1,05,2.87,100000.0000,M,00.000,M,,*5B
$GPGGA,055734.80,3525.78789904,N,05105.10480000,E,1,05,2.87,100000.0000,M,00.000,M,,*54
$GPGGA,055734.90,3525.78789904,N,05105.10480000,E,1,05,2.87,100000.0000,M,00.000,M,,*55
$GPGGA,055735.00,3525.78789904,N,05105.10480000,E,1,05,2.87,100000.0000,M,00.000,M,,*5D
$GPGGA,055735.10,3525.78789904,N,05105.10480000,E,1,05,2.87,100000.0000,M,00.000,M,,*5C
$GPGGA,055735.20,3525.78789904,N,05105.10480000,E,1,05,2.87,100000.0000,M,00.000,M,,*5F
$GPGGA,055735.30,3525.78789904,N,05105.10480000,E,1,05,2.87,100000.0000,M,00.000,M,,*5E
$GPGGA,055735.40,3525.78789904,N,05105.10480000,E,1,05,2.87,100000.0000,M,00.000,M,,*59
$GPGGA,055735.50,3525.78789904,N,05105.10480000,E,1,05,2.87,100000.0000,M,00.000,M,,*58
$GPGGA,055735.60,3525.78789904,N,05105.10480000,E,1,05,2.87,100000.0000,M,00.000,M,,*5B
$GPGGA,055735.70,3525.78789904,N,05105.10480000,E,1,05,2.87,100000.0000,M,00.000,M,,*5A
$GPGGA,055735.80,3525.78789904,N,05105.10480000,E,1,05,2.87,100000.0000,M,00.000,M,,*55
$GPGGA,055735.90,3525.78789904,N,05105.10480000,E,1,05,2.87,100000.0000,M,00.000,M,,*54
$GPGGA,055736.00,3525.78789904,N,05105.10480000,E,1,05,2.87,100000.0000,M,00.000,M,,*5E
$GPGGA,055736.10,3525.78789904,N,05105.10480000,E,1,05,2.87,100000.0000,M,00.000,M,,*5F
$GPGGA,055736.20,3525.78789904,N,05105.10480000,E,1,05,2.87,100000.0000,M,00.000,M,,*5C
$GPGGA,055736.30,3525.78789904,N,05105.10480000,E,1,05,2.87,100000.0000,M,00.000,M,,*5D
$GPGGA,055736.40,3525.78789904,N,05105.10480000,E,1,05,2.87,100000.0000,M,00.000,M,,*5A
$GPGGA,055736.50,3525.78789904,N,05105.10480000,E,1,05,2.87,100000.0000,M,00.000,M,,*5B
$GPGGA,055736.60,3525.78789904,N,05105.10480000,E,1,05,2.87,100000.0000,M,00.000,M,,*58
$GPGGA,055736.70,3525.78789904,N,05105.10480000,E,1,05,2.87,100000.0000,M,00.000,M,,*59
$GPGGA,055736.80,3525.78789904,N,05105.10480000,E,1,05,2.87,100000.0000,M,00.000,M,,*56
$GPGGA,055736.90,3525.78789904,N,05105.10480000,E,1,05,2.87,100000.0000,M,00.000,M,,*57
$GPGGA,055737.00,3525.78789904,N,05105.10480000,E,1,05,2.87,100000.0000,M,00.000,M,,*5F
$GPGGA,055737.10,3525.78789904,N,05105.10480000,E,1,05,2.87,100000.0000,M,00.000,M,,*5E
$GPGGA,055737.20,3525.78789904,N,05105.10480000,E,1,05,2.87,100000.0000,M,00.000,M,,*5D
$GPGGA,055737.30,3525.78789904,N,05105.10480000,E,1,05,2.87,100000.0000,M,00.000,M,,*5C
$GPGGA,055737.40,3525.78789904,N,05105.10480000,E,1,05,2.87,100000.0000,M,00.000,M,,*5B
$GPGGA,055737.50,3525.78789904,N,05105.10480000,E,1,05,2.87,100000.0000,M,00.000,M,,*5A
$GPGGA,055737.60,3525.78789904,N,05105.10480000,E,1,05,2.87,100000.0000,M,00.000,M,,*59
$GPGGA,055737.70,3525.78789904,N,05105.10480000,E,1,05,2.87,100000.0000,M,00.000,M,,*58
$GPGGA,055737.80,3525.78789904,N,05105.10480000,E,1,05,2.87,100000.0000,M,00.000,M,,*57
$GPGGA,055737.90,3525.78789904,N,05105.10480000,E,1,05,2.87,100000.0000,M,00.000,M,,*56
$GPGGA,055738.00,3525.78789904,N,05105.10480000,E,1,05,2.87,100000.0000,M,00.000,M,,*50
$GPGGA,055738.10,3525.78789904,N,05105.10480000,E,1,05,2.87,100000.0000,M,00.000,M,,*51
$GPGGA,055738.20,3525.78789904,N,05105.10480000,E,1,05,2.87,100000.0000,M,00.000,M,,*52
$GPGGA,055738.30,3525.78789904,N,05105.10480000,E,1,05,2.87,100000.0000,M,00.000,M,,*53
$GPGGA,055738.40,3525.78789904,N,05105.10480000,E,1,05,2.87,100000.0000,M,00.000,M,,*54
$GPGGA,055738.50,3525.78789904,N,05105.10480000,E,1,05,2.87,100000.0000,M,00.000,M,,*55
$GPGGA,055738.60,3525.78789904,N,05105.10480000,E,1,05,2.87,100000.0000,M,00.000,M,,*56
$GPGGA,055738.70,3525.78789904,N,05105.10480000,E,1,05,2.87,100000.0000,M,00.000,M,,*57
$GPGGA,055738.80,3525.78789904,N,05105.10480000,E,1,05,2.87,100000.0000,M,00.000,M,,*58
$GPGGA,055738.90,3525.78789904,N,05105.10480000,E,1,05,2.87,100000.0000,M,00.000,M,,*59
$GPGGA,055739.00,3525.78789904,N,05105.10480000,E,1,05,2.87,100000.0000,M,00.000,M,,*51
$GPGGA,055739.10,3525.78789904,N,05105.10480000,E,1,05,2.87,100000.0000,M,00.000,M,,*50
$GPGGA,055739.20,3525.78789904,N,05105.10480000,E,1,05,2.87,100000.0000,M,00.000,M,,*53
$GPGGA,055739.30,3525.78789904,N,05105.10480000,E,1,05,2.87,100000.0000,M,00.000,M,,*52
$GPGGA,055739.40,3525.78789904,N,05105.10480000,E,1,05,2.87,100000.0000,M,00.000,M,,*55
$GPGGA,055739.50,3525.78789904,N,05105.10480000,E,1,05,2.87,100000.0000,M,00.000,M,,*54
$GPGGA,055739.60,3525.78789904,N,05105.10480000,E,1,05,2.87,100000.0000,M,00.000,M,,*57
$GPGGA,055739.70,3525.78789904,N,05105.10480000,E,1,05,2.87,100000.0000,M,00.000,M,,*56
$GPGGA,055739.80,3525.78789904,N,05105.10480000,E,1,05,2.87,100000.0000,M,00.000,M,,*59
$GPGGA,055739.90,3525.78789904,N,05105.10480000,E,1,05,2.87,100000.0000,M,00.000,M,,*58
$GPGGA,055740.00,3525.78789904,N,05105.10480000,E,1,05,2.87,100000.0000,M,00.000,M,,*5F
$GPGGA,055740.10,3525.78789904,N,05105.10480000,E,1,05,2.87,100000.0000,M,00.000,M,,*5E
$GPGGA,055740.20,3525.78789904,N,05105.10480000,E,1,05,2.87,100000.0000,M,00.000,M,,*5D
$GPGGA,055740.30,3525.78789904,N,05105.10480000,E,1,05,2.87,100000.0000,M,00.000,M,,*5C
$GPGGA,055740.40,3525.78789904,N,05105.10480000,E,1,05,2.87,100000.0000,M,00.000,M,,*5B
$GPGGA,055740.50,3525.78789904,N,05105.10480000,E,1,05,2.87,100000.0000,M,00.000,M,,*5A
$GPGGA,055740.60,3525.78789904,N,05105.10480000,E,1,05,2.87,100000.0000,M,00.000,M,,*59
$GPGGA,055740.70,3525.78789904,N,05105.10480000,E,1,05,2.87,100000.0000,M,00.000,M,,*58
$GPGGA,055740.80,3525.78789904,N,05105.10480000,E,1,05,2.87,100000.0000,M,00.000,M,,*57
$GPGGA,055740.90,3525.78789904,N,05105.10480000,E,1,05,2.87,100000.0000,M,00.000,M,,*56
$GPGGA,055741.00,3525.78789904,N,05105.10480000,E,1,05,2.87,100000.0000,M,00.000,M,,*5E
$GPGGA,055741.10,3525.78789904,N,05105.10480532,E,1,05,2.87,100000.0000,M,00.000,M,,*5B
$GPGGA,055741.20,3525.78789904,N,05105.10484221,E,1,05,2.87,100000.0000,M,00.000,M,,*59
$GPGGA,055741.30,3525.78789904,N,05105.10494212,E,1,05,2.87,100000.0000,M,00.000,M,,*59
$GPGGA,055741.40,3525.78789904,N,05105.10513571,E,1,05,2.87,100000.0000,M,00.000,M,,*52
$GPGGA,055741.50,3525.78789904,N,05105.10543815,E,1,05,2.87,100000.0000,M,00.000,M,,*59
$GPGGA,055741.60,3525.78789904,N,05105.10585001,E,1,05,2.87,100000.0000,M,00.000,M,,*5D
$GPGGA,055741.70,3525.78789904,N,05105.10637130,E,1,05,2.87,100000.0000,M,00.000,M,,*55
$GPGGA,055741.80,3525.78789904,N,05105.10700200,E,1,05,2.87,100000.0000,M,00.000,M,,*5F
$GPGGA,055741.90,3525.78789904,N,05105.10774213,E,1,05,2.87,100000.0000,M,00.000,M,,*5F
$GPGGA,055742.00,3525.78789904,N,05105.10859168,E,1,05,2.87,100000.0000,M,00.000,M,,*5A
$GPGGA,055742.10,3525.78789904,N,05105.10955064,E,1,05,2.87,100000.0000,M,00.000,M,,*5B
$GPGGA,055742.20,3525.78789904,N,05105.11061904,E,1,05,2.87,100000.0000,M,00.000,M,,*58
$GPGGA,055742.30,3525.78789904,N,05105.11179685,E,1,05,2.87,100000.0000,M,00.000,M,,*57
$GPGGA,055742.40,3525.78789904,N,05105.11308408,E,1,05,2.87,100000.0000,M,00.000,M,,*53
$GPGGA,055742.50,3525.78789904,N,05105.11448073,E,1,05,2.87,100000.0000,M,00.000,M,,*59
$GPGGA,055742.60,3525.78789904,N,05105.11598681,E,1,05,2.87,100000.0000,M,00.000,M,,*5D
$GPGGA,055742.70,3525.78789903,N,05105.11760231,E,1,05,2.87,100000.0000,M,00.000,M,,*51
$GPGGA,055742.80,3525.78789903,N,05105.11932722,E,1,05,2.87,100000.0000,M,00.000,M,,*50
$GPGGA,055742.90,3525.78789903,N,05105.12116156,E,1,05,2.87,100000.0000,M,00.000,M,,*59
$GPGGA,055743.00,3525.78789902,N,05105.12310532,E,1,05,2.87,100000.0000,M,00.000,M,,*52
$GPGGA,055743.10,3525.78789902,N,05105.12515851,E,1,05,2.87,100000.0000,M,00.000,M,,*58
$GPGGA,055743.20,3525.78789901,N,05105.12732111,E,1,05,2.87,100000.0000,M,00.000,M,,*52
$GPGGA,055743.30,3525.78789900,N,05105.12959313,E,1,05,2.87,100000.0000,M,00.000,M,,*51
$GPGGA,055743.40,3525.78789899,N,05105.13197458,E,1,05,2.87,100000.0000,M,00.000,M,,*54
$GPGGA,055743.50,3525.78789898,N,05105.13446545,E,1,05,2.87,100000.0000,M,00.000,M,,*50
$GPGGA,055743.60,3525.78789897,N,05105.13706573,E,1,05,2.87,100000.0000,M,00.000,M,,*5E
$GPGGA,055743.70,3525.78789896,N,05105.13977544,E,1,05,2.87,100000.0000,M,00.000,M,,*52
$GPGGA,055743.80,3525.78789895,N,05105.14259458,E,1,05,2.87,100000.0000,M,00.000,M,,*52
$GPGGA,055743.90,3525.78789893,N,05105.14552313,E,1,05,2.87,100000.0000,M,00.000,M,,*51
$GPGGA,055744.00,3525.78789891,N,05105.14856110,E,1,05,2.87,100000.0000,M,00.000,M,,*55
$GPGGA,055744.10,3525.78789889,N,05105.15170849,E,1,05,2.87,100000.0000,M,00.000,M,,*54
$GPGGA,055744.20,3525.78789887,N,05105.15496531,E,1,05,2.87,100000.0000,M,00.000,M,,*56
$GPGGA,055744.30,3525.78789885,N,05105.15833091,E,1,05,2.87,100000.0000,M,00.000,M,,*59
$GPGGA,055744.40,3525.78789882,N,05105.16178971,E,1,05,2.87,100000.0000,M,00.000,M,,*5B
$GPGGA,055744.50,3525.78789879,N,05105.16531094,E,1,05,2.87,100000.0000,M,00.000,M,,*55
$GPGGA,055744.60,3525.78789876,N,05105.16886319,E,1,05,2.87,100000.0000,M,00.000,M,,*5E
$GPGGA,055744.70,3525.78789873,N,05105.17242244,E,1,05,2.87,100000.0000,M,00.000,M,,*50
$GPGGA,055744.80,3525.78789869,N,05105.17598169,E,1,05,2.87,100000.0000,M,00.000,M,,*58
$GPGGA,055744.90,3525.78789866,N,05105.17954095,E,1,05,2.87,100000.0000,M,00.000,M,,*58
$GPGGA,055745.00,3525.78789862,N,05105.18310021,E,1,05,2.87,100000.0000,M,00.000,M,,*5E
$GPGGA,055745.10,3525.78789858,N,05105.18665946,E,1,05,2.87,100000.0000,M,00.000,M,,*59
$GPGGA,055745.20,3525.78789854,N,05105.19021872,E,1,05,2.87,100000.0000,M,00.000,M,,*57
$GPGGA,055745.30,3525.78789850,N,05105.19377797,E,1,05,2.87,100000.0000,M,00.000,M,,*56
$GPGGA,055745.40,3525.78789845,N,05105.19733723,E,1,05,2.87,100000.0000,M,00.000,M,,*5E
$GPGGA,055745.50,3525.78789841,N,05105.20089648,E,1,05,2.87,100000.0000,M,00.000,M,,*5B
$GPGGA,055745.60,3525.78789836,N,05105.20445574,E,1,05,2.87,100000.0000,M,00.000,M,,*50
$GPGGA,055745.70,3525.78789831,N,05105.20801500,E,1,05,2.87,100000.0000,M,00.000,M,,*59
$GPGGA,055745.80,3525.78789826,N,05105.21157425,E,1,05,2.87,100000.0000,M,00.000,M,,*5D
$GPGGA,055745.90,3525.78789820,N,05105.21513351,E,1,05,2.87,100000.0000,M,00.000,M,,*5A
$GPGGA,055746.00,3525.78789815,N,05105.21869276,E,1,05,2.87,100000.0000,M,00.000,M,,*52
$GPGGA,055746.10,3525.78789809,N,05105.22225202,E,1,05,2.87,100000.0000,M,00.000,M,,*5C
$GPGGA,055746.20,3525.78789803,N,05105.22581127,E,1,05,2.87,100000.0000,M,00.000,M,,*58
$GPGGA,055746.30,3525.78789797,N,05105.22937053,E,1,05,2.87,100000.0000,M,00.000,M,,*58
$GPGGA,055746.40,3525.78789791,N,05105.23292979,E,1,05,2.87,100000.0000,M,00.000,M,,*5D
$GPGGA,055746.50,3525.78789785,N,05105.23648904,E,1,05,2.87,100000.0000,M,00.000,M,,*50
$GPGGA,055746.60,3525.78789778,N,05105.24004830,E,1,05,2.87,100000.0000,M,00.000,M,,*5E
$GPGGA,055746.70,3525.78789771,N,05105.24360755,E,1,05,2.87,100000.0000,M,00.000,M,,*5B
$GPGGA,055746.80,3525.78789765,N,05105.24716681,E,1,05,2.87,100000.0000,M,00.000,M,,*5C
$GPGGA,055746.90,3525.78789757,N,05105.25072606,E,1,05,2.87,100000.0000,M,00.000,M,,*57
$GPGGA,055747.00,3525.78789750,N,05105.25428532,E,1,05,2.87,100000.0000,M,00.000,M,,*57
$GPGGA,055747.10,3525.78789743,N,05105.25784458,E,1,05,2.87,100000.0000,M,00.000,M,,*5C
$GPGGA,055747.20,3525.78789735,N,05105.26140383,E,1,05,2.87,100000.0000,M,00.000,M,,*52
$GPGGA,055747.30,3525.78789727,N,05105.26496309,E,1,05,2.87,100000.0000,M,00.000,M,,*5C
$GPGGA,055747.40,3525.78789719,N,05105.26852234,E,1,05,2.87,100000.0000,M,00.000,M,,*5D
$GPGGA,055747.50,3525.78789711,N,05105.27208160,E,1,05,2.87,100000.0000,M,00.000,M,,*52
$GPGGA,055747.60,3525.78789703,N,05105.27564085,E,1,05,2.87,100000.0000,M,00.000,M,,*55
$GPGGA,055747.70,3525.78789695,N,05105.27920011,E,1,05,2.87,100000.0000,M,00.000,M,,*5B
$GPGGA,055747.80,3525.78789686,N,05105.28275937,E,1,05,2.87,100000.0000,M,00.000,M,,*5F
$GPGGA,055747.90,3525.78789677,N,05105.28631862,E,1,05,2.87,100000.0000,M,00.000,M,,*55
$GPGGA,055748.00,3525.78789668,N,05105.28987788,E,1,05,2.87,100000.0000,M,00.000,M,,*54
$GPGGA,055748.10,3525.78789659,N,05105.29343713,E,1,05,2.87,100000.0000,M,00.000,M,,*56
$GPGGA,055748.20,3525.78789650,N,05105.29699639,E,1,05,2.87,100000.0000,M,00.000,M,,*57
$GPGGA,055748.30,3525.78789640,N,05105.30055564,E,1,05,2.87,100000.0000,M,00.000,M,,*52
$GPGGA,055748.40,3525.78789630,N,05105.30411490,E,1,05,2.87,100000.0000,M,00.000,M,,*5C
$GPGGA,055748.50,3525.78789620,N,05105.30767416,E,1,05,2.87,100000.0000,M,00.000,M,,*50
$GPGGA,055748.60,3525.78789610,N,05105.31123341,E,1,05,2.87,100000.0000,M,00.000,M,,*52
$GPGGA,055748.70,3525.78789600,N,05105.31479267,E,1,05,2.87,100000.0000,M,00.000,M,,*5D
$GPGGA,055748.80,3525.78789590,N,05105.31835192,E,1,05,2.87,100000.0000,M,00.000,M,,*55
$GPGGA,055748.90,3525.78789579,N,05105.32191118,E,1,05,2.87,100000.0000,M,00.000,M,,*55
$GPGGA,055749.00,3525.78789568,N,05105.32547043,E,1,05,2.87,100000.0000,M,00.000,M,,*5D
